[{
"airport": [
	{
		"iatacode" : "HEA",
		"name" : "Herat",
		"country" : "AFG",
		"city" : "Herat",
		"province" : "Afghanistan",
		"island" : null,
		"latitude" : 34.210017,
		"longitude" : 62.2283,
		"elevation" : 977,
		"gmtoffset" : 5
	},
	{
		"iatacode" : "KBL",
		"name" : "Kabul Intl",
		"country" : "AFG",
		"city" : "Kabul",
		"province" : "Afghanistan",
		"island" : null,
		"latitude" : 34.565853,
		"longitude" : 69.212328,
		"elevation" : 1792,
		"gmtoffset" : 5
	},
	{
		"iatacode" : "TIA",
		"name" : "Tirana Rinas",
		"country" : "AL",
		"city" : "Tirana",
		"province" : "Albania",
		"island" : null,
		"latitude" : 41.414742,
		"longitude" : 19.720561,
		"elevation" : 38,
		"gmtoffset" : 1
	},
	{
		"iatacode" : "TEE",
		"name" : "Cheikh Larbi Tebessi",
		"country" : "DZ",
		"city" : "Tébessa",
		"province" : "Algeria",
		"island" : null,
		"latitude" : 35.431611,
		"longitude" : 8.120717,
		"elevation" : 811,
		"gmtoffset" : 1
	},
	{
		"iatacode" : "BLJ",
		"name" : "Batna Airport",
		"country" : "DZ",
		"city" : "Batna",
		"province" : "Algeria",
		"island" : null,
		"latitude" : 35.752106,
		"longitude" : 6.308589,
		"elevation" : 822,
		"gmtoffset" : 1
	},
	{
		"iatacode" : "BJA",
		"name" : "Soummam",
		"country" : "DZ",
		"city" : "Bejaïa",
		"province" : "Algeria",
		"island" : null,
		"latitude" : 36.711997,
		"longitude" : 5.069922,
		"elevation" : 6,
		"gmtoffset" : 1
	},
	{
		"iatacode" : "TMR",
		"name" : "Tamanrasset",
		"country" : "DZ",
		"city" : "Tamanrasset",
		"province" : "Algeria",
		"island" : null,
		"latitude" : 22.811461,
		"longitude" : 5.451075,
		"elevation" : 1377,
		"gmtoffset" : 1
	},
	{
		"iatacode" : "BSK",
		"name" : "Biskra",
		"country" : "DZ",
		"city" : "Biskra",
		"province" : "Algeria",
		"island" : null,
		"latitude" : 34.793289,
		"longitude" : 5.738231,
		"elevation" : 88,
		"gmtoffset" : 1
	},
	{
		"iatacode" : "CZL",
		"name" : "Mohamed Boudiaf Intl",
		"country" : "DZ",
		"city" : "Constantine",
		"province" : "Algeria",
		"island" : null,
		"latitude" : 36.276028,
		"longitude" : 6.620386,
		"elevation" : 691,
		"gmtoffset" : 1
	},
	{
		"iatacode" : "QSF",
		"name" : "Ain Arnat Airport",
		"country" : "DZ",
		"city" : "Sétif",
		"province" : "Algeria",
		"island" : null,
		"latitude" : 36.1781,
		"longitude" : 5.32449,
		"elevation" : 1024,
		"gmtoffset" : 0
	},
	{
		"iatacode" : "ORN",
		"name" : "Es Senia",
		"country" : "DZ",
		"city" : "Oran",
		"province" : "Algeria",
		"island" : null,
		"latitude" : 35.623858,
		"longitude" : -0.621183,
		"elevation" : 90,
		"gmtoffset" : 1
	},
	{
		"iatacode" : "GHA",
		"name" : "Noumerat",
		"country" : "DZ",
		"city" : "Ghardaïa",
		"province" : "Algeria",
		"island" : null,
		"latitude" : 32.384106,
		"longitude" : 3.794114,
		"elevation" : 461,
		"gmtoffset" : 1
	},
	{
		"iatacode" : "AAE",
		"name" : "Annaba",
		"country" : "DZ",
		"city" : "Annaba",
		"province" : "Algeria",
		"island" : null,
		"latitude" : 36.822225,
		"longitude" : 7.809167,
		"elevation" : 5,
		"gmtoffset" : 1
	},
	{
		"iatacode" : "ALG",
		"name" : "Houari Boumediene",
		"country" : "DZ",
		"city" : "Algiers",
		"province" : "Algeria",
		"island" : null,
		"latitude" : 36.691014,
		"longitude" : 3.215408,
		"elevation" : 25,
		"gmtoffset" : 1
	},
	{
		"iatacode" : "TLM",
		"name" : "Zenata",
		"country" : "DZ",
		"city" : "Tlemcen",
		"province" : "Algeria",
		"island" : null,
		"latitude" : 35.016667,
		"longitude" : -1.45,
		"elevation" : 248,
		"gmtoffset" : 1
	},
	{
		"iatacode" : "PPG",
		"name" : "Pago Pago Intl",
		"country" : "AMSA",
		"city" : "Pago Pago",
		"province" : "American Samoa",
		"island" : "Tutuila",
		"latitude" : -14.2794,
		"longitude" : 170.7006,
		"elevation" : 10,
		"gmtoffset" : 11
	},
	{
		"iatacode" : "VPE",
		"name" : "Ondjiva Pereira Airport",
		"country" : "ANG",
		"city" : "Ngiva",
		"province" : "Cunene",
		"island" : null,
		"latitude" : -17.043464,
		"longitude" : 15.683822,
		"elevation" : 1087,
		"gmtoffset" : 1
	},
	{
		"iatacode" : "SDD",
		"name" : "Lubango",
		"country" : "ANG",
		"city" : "Lubango",
		"province" : "Huíla",
		"island" : null,
		"latitude" : -14.924733,
		"longitude" : 13.575022,
		"elevation" : 1762,
		"gmtoffset" : 1
	},
	{
		"iatacode" : "CAB",
		"name" : "Cabinda",
		"country" : "ANG",
		"city" : "Cabinda",
		"province" : "Cabinda",
		"island" : null,
		"latitude" : -5.596992,
		"longitude" : 12.188353,
		"elevation" : 20,
		"gmtoffset" : 1
	},
	{
		"iatacode" : "SPP",
		"name" : "Menongue",
		"country" : "ANG",
		"city" : "Menongue",
		"province" : "Cuando Cubango",
		"island" : null,
		"latitude" : -14.657583,
		"longitude" : 17.719833,
		"elevation" : 1363,
		"gmtoffset" : 1
	},
	{
		"iatacode" : "LAD",
		"name" : "Luanda 4 De Fevereiro",
		"country" : "ANG",
		"city" : "Luanda",
		"province" : "Luanda",
		"island" : null,
		"latitude" : -8.858375,
		"longitude" : 13.231178,
		"elevation" : 74,
		"gmtoffset" : 1
	},
	{
		"iatacode" : "NOV",
		"name" : "Huambo",
		"country" : "ANG",
		"city" : "Huambo",
		"province" : "Huambo",
		"island" : null,
		"latitude" : -12.808878,
		"longitude" : 15.760547,
		"elevation" : 1703,
		"gmtoffset" : 1
	},
	{
		"iatacode" : "AXA",
		"name" : "Wallblake",
		"country" : "AXA",
		"city" : "The Valley",
		"province" : "Anguilla",
		"island" : "Anguilla",
		"latitude" : 18.204834,
		"longitude" : -63.055084,
		"elevation" : 39,
		"gmtoffset" : -4
	},
	{
		"iatacode" : "ANU",
		"name" : "V C Bird Intl",
		"country" : "AG",
		"city" : "Saint Johns",
		"province" : "Antigua and Barbuda",
		"island" : "Antigua",
		"latitude" : 17.136749,
		"longitude" : -61.792667,
		"elevation" : 19,
		"gmtoffset" : -4
	},
	{
		"iatacode" : "IRJ",
		"name" : "La Rioja",
		"country" : "RA",
		"city" : "La Rioja",
		"province" : "La Rioja",
		"island" : null,
		"latitude" : -29.381636,
		"longitude" : -66.795839,
		"elevation" : 438,
		"gmtoffset" : -3
	},
	{
		"iatacode" : "JUJ",
		"name" : "Jujuy",
		"country" : "RA",
		"city" : "San Salvador de Jujuy",
		"province" : "Jujuy",
		"island" : null,
		"latitude" : -24.392778,
		"longitude" : -65.097778,
		"elevation" : 920,
		"gmtoffset" : -3
	},
	{
		"iatacode" : "BHI",
		"name" : "Comandante Espora",
		"country" : "RA",
		"city" : "Bahía Blanca",
		"province" : "Buenos Aires",
		"island" : null,
		"latitude" : -38.724967,
		"longitude" : -62.169317,
		"elevation" : 75,
		"gmtoffset" : -3
	},
	{
		"iatacode" : "TUC",
		"name" : "Teniente Benjamin Matienzo",
		"country" : "RA",
		"city" : "San Miguel de Tucumán",
		"province" : "Tucumán",
		"island" : null,
		"latitude" : -26.840861,
		"longitude" : -65.104944,
		"elevation" : 456,
		"gmtoffset" : -3
	},
	{
		"iatacode" : "LUQ",
		"name" : "San Luis",
		"country" : "RA",
		"city" : "San Luis",
		"province" : "San Luis",
		"island" : null,
		"latitude" : -33.273192,
		"longitude" : -66.356422,
		"elevation" : 710,
		"gmtoffset" : -3
	},
	{
		"iatacode" : "SDE",
		"name" : "Santiago del Estero",
		"country" : "RA",
		"city" : "Santiago del Estero",
		"province" : "Santiago de Estero",
		"island" : null,
		"latitude" : -27.765617,
		"longitude" : -64.310122,
		"elevation" : 200,
		"gmtoffset" : -3
	},
	{
		"iatacode" : "SFN",
		"name" : "Sauce Viejo",
		"country" : "RA",
		"city" : "Santa Fe",
		"province" : "Santa Fe",
		"island" : null,
		"latitude" : -31.711666,
		"longitude" : -60.811668,
		"elevation" : 17,
		"gmtoffset" : -3
	},
	{
		"iatacode" : "CNQ",
		"name" : "Corrientes",
		"country" : "RA",
		"city" : "Corrientes",
		"province" : "Corrientes",
		"island" : null,
		"latitude" : -27.445503,
		"longitude" : -58.761864,
		"elevation" : 62,
		"gmtoffset" : -3
	},
	{
		"iatacode" : "NQN",
		"name" : "Presidente Peron",
		"country" : "RA",
		"city" : "Neuquén",
		"province" : "Neuquén",
		"island" : null,
		"latitude" : -38.949,
		"longitude" : -68.155711,
		"elevation" : 273,
		"gmtoffset" : -3
	},
	{
		"iatacode" : "SLA",
		"name" : "Salta",
		"country" : "RA",
		"city" : "Salta",
		"province" : "Salta",
		"island" : null,
		"latitude" : -24.855978,
		"longitude" : -65.486169,
		"elevation" : 1246,
		"gmtoffset" : -3
	},
	{
		"iatacode" : "AEP",
		"name" : "Aeroparque Jorge Newbery",
		"country" : "RA",
		"city" : "Buenos Aires",
		"province" : "Distrito Federal",
		"island" : null,
		"latitude" : -34.559175,
		"longitude" : -58.415606,
		"elevation" : 5,
		"gmtoffset" : -3
	},
	{
		"iatacode" : "EZE",
		"name" : "Ministro Pistarini",
		"country" : "RA",
		"city" : "Buenos Aires",
		"province" : "Distrito Federal",
		"island" : null,
		"latitude" : -34.822222,
		"longitude" : -58.535833,
		"elevation" : 20,
		"gmtoffset" : -3
	},
	{
		"iatacode" : "USH",
		"name" : "Ushuaia Malvinas Argentinas",
		"country" : "RA",
		"city" : "Ushuaia",
		"province" : "Tierra del Fuego",
		"island" : null,
		"latitude" : -54.843278,
		"longitude" : -68.29575,
		"elevation" : 22,
		"gmtoffset" : -3
	},
	{
		"iatacode" : "FMA",
		"name" : "Formosa",
		"country" : "RA",
		"city" : "Formosa",
		"province" : "Formosa",
		"island" : null,
		"latitude" : -26.212722,
		"longitude" : -58.228111,
		"elevation" : 59,
		"gmtoffset" : -3
	},
	{
		"iatacode" : "PSS",
		"name" : "Posadas",
		"country" : "RA",
		"city" : "Posadas",
		"province" : "Misiones",
		"island" : null,
		"latitude" : -27.385839,
		"longitude" : -55.970728,
		"elevation" : 131,
		"gmtoffset" : -3
	},
	{
		"iatacode" : "ROS",
		"name" : "Rosario",
		"country" : "RA",
		"city" : "Rosario",
		"province" : "Santa Fe",
		"island" : null,
		"latitude" : -32.903611,
		"longitude" : -60.785,
		"elevation" : 26,
		"gmtoffset" : -3
	},
	{
		"iatacode" : "RES",
		"name" : "Resistencia",
		"country" : "RA",
		"city" : "Resistencia",
		"province" : "Chaco",
		"island" : null,
		"latitude" : -27.449986,
		"longitude" : -59.056125,
		"elevation" : 53,
		"gmtoffset" : -3
	},
	{
		"iatacode" : "RGL",
		"name" : "Rio Gallegos",
		"country" : "RA",
		"city" : "Río Gallegos",
		"province" : "Santa Cruz",
		"island" : null,
		"latitude" : -51.608875,
		"longitude" : -69.312636,
		"elevation" : 19,
		"gmtoffset" : -3
	},
	{
		"iatacode" : "CRD",
		"name" : "Comodoro Rivadavia",
		"country" : "RA",
		"city" : "Comodoro Rivadavia",
		"province" : "Chubut",
		"island" : null,
		"latitude" : -45.785347,
		"longitude" : -67.465508,
		"elevation" : 58,
		"gmtoffset" : -3
	},
	{
		"iatacode" : "MDQ",
		"name" : "Mar Del Plata",
		"country" : "RA",
		"city" : "Mar del Plata",
		"province" : "Buenos Aires",
		"island" : null,
		"latitude" : -37.934167,
		"longitude" : -57.573333,
		"elevation" : 22,
		"gmtoffset" : -3
	},
	{
		"iatacode" : "MDZ",
		"name" : "El Plumerillo",
		"country" : "RA",
		"city" : "Mendoza",
		"province" : "Mendoza",
		"island" : null,
		"latitude" : -32.831717,
		"longitude" : -68.792856,
		"elevation" : 704,
		"gmtoffset" : -3
	},
	{
		"iatacode" : "COR",
		"name" : "Ambrosio L V Taravella",
		"country" : "RA",
		"city" : "Córdoba",
		"province" : "Córdoba",
		"island" : null,
		"latitude" : -31.323619,
		"longitude" : -64.207953,
		"elevation" : 489,
		"gmtoffset" : -3
	},
	{
		"iatacode" : "EVN",
		"name" : "Zvartnots",
		"country" : "ARM",
		"city" : "Yerevan",
		"province" : "Armenia",
		"island" : null,
		"latitude" : 40.147275,
		"longitude" : 44.395881,
		"elevation" : 865,
		"gmtoffset" : 4
	},
	{
		"iatacode" : "AUA",
		"name" : "Reina Beatrix Intl",
		"country" : "ARU",
		"city" : "Oranjestad",
		"province" : "Aruba",
		"island" : "Aruba",
		"latitude" : 12.501389,
		"longitude" : -70.015221,
		"elevation" : 18,
		"gmtoffset" : -4
	},
	{
		"iatacode" : "MEL",
		"name" : "Melbourne Intl",
		"country" : "AUS",
		"city" : "Melbourne",
		"province" : "Victoria",
		"island" : null,
		"latitude" : -37.673333,
		"longitude" : 144.843333,
		"elevation" : 132,
		"gmtoffset" : 10
	},
	{
		"iatacode" : "SYD",
		"name" : "Sydney Intl",
		"country" : "AUS",
		"city" : "Sydney",
		"province" : "New South Wales",
		"island" : null,
		"latitude" : -33.946111,
		"longitude" : 151.177222,
		"elevation" : 6,
		"gmtoffset" : 10
	},
	{
		"iatacode" : "CNS",
		"name" : "Cairns Intl",
		"country" : "AUS",
		"city" : "Cairns",
		"province" : "Queensland",
		"island" : null,
		"latitude" : -16.885833,
		"longitude" : 145.755278,
		"elevation" : 3,
		"gmtoffset" : 10
	},
	{
		"iatacode" : "TSV",
		"name" : "Townsville",
		"country" : "AUS",
		"city" : "Townsville",
		"province" : "Queensland",
		"island" : null,
		"latitude" : -19.2525,
		"longitude" : 146.765278,
		"elevation" : 5,
		"gmtoffset" : 10
	},
	{
		"iatacode" : "BNE",
		"name" : "Brisbane Intl",
		"country" : "AUS",
		"city" : "Brisbane",
		"province" : "Queensland",
		"island" : null,
		"latitude" : -27.384167,
		"longitude" : 153.1175,
		"elevation" : 4,
		"gmtoffset" : 10
	},
	{
		"iatacode" : "CBR",
		"name" : "Canberra",
		"country" : "AUS",
		"city" : "Canberra",
		"province" : "Australia Capital Territory",
		"island" : null,
		"latitude" : -35.306944,
		"longitude" : 149.195,
		"elevation" : 575,
		"gmtoffset" : 10
	},
	{
		"iatacode" : "ADL",
		"name" : "Adelaide Intl",
		"country" : "AUS",
		"city" : "Adelaide",
		"province" : "South Australia",
		"island" : null,
		"latitude" : -34.945,
		"longitude" : 138.530556,
		"elevation" : 6,
		"gmtoffset" : 9.5
	},
	{
		"iatacode" : "NTL",
		"name" : "Newcastle Airport",
		"country" : "AUS",
		"city" : "Newcastle",
		"province" : "New South Wales",
		"island" : null,
		"latitude" : -32.78,
		"longitude" : 151.83,
		"elevation" : 9,
		"gmtoffset" : 10
	},
	{
		"iatacode" : "DRW",
		"name" : "Darwin Intl",
		"country" : "AUS",
		"city" : "Darwin",
		"province" : "Northern Territory",
		"island" : null,
		"latitude" : -12.4083333,
		"longitude" : 130.87266,
		"elevation" : 31,
		"gmtoffset" : 9.5
	},
	{
		"iatacode" : "PER",
		"name" : "Perth Intl",
		"country" : "AUS",
		"city" : "Perth",
		"province" : "Western Australia",
		"island" : null,
		"latitude" : -31.940278,
		"longitude" : 115.966944,
		"elevation" : 20,
		"gmtoffset" : 8
	},
	{
		"iatacode" : "HBA",
		"name" : "Hobart",
		"country" : "AUS",
		"city" : "Hobart",
		"province" : "Tasmania",
		"island" : "Tasmania",
		"latitude" : -42.836111,
		"longitude" : 147.510278,
		"elevation" : 4,
		"gmtoffset" : 10
	},
	{
		"iatacode" : "SZG",
		"name" : "Salzburg",
		"country" : "A",
		"city" : "Salzburg",
		"province" : "Salzburg",
		"island" : null,
		"latitude" : 47.793304,
		"longitude" : 13.004333,
		"elevation" : 430,
		"gmtoffset" : 1
	},
	{
		"iatacode" : "LNZ",
		"name" : "Linz",
		"country" : "A",
		"city" : "Linz",
		"province" : "Oberösterreich",
		"island" : null,
		"latitude" : 48.233219,
		"longitude" : 14.187511,
		"elevation" : 298,
		"gmtoffset" : 1
	},
	{
		"iatacode" : "INN",
		"name" : "Innsbruck",
		"country" : "A",
		"city" : "Innsbruck",
		"province" : "Tirol",
		"island" : null,
		"latitude" : 47.260219,
		"longitude" : 11.343964,
		"elevation" : 581,
		"gmtoffset" : 1
	},
	{
		"iatacode" : "VIE",
		"name" : "Schwechat",
		"country" : "A",
		"city" : "Wien",
		"province" : "Wien",
		"island" : null,
		"latitude" : 48.110278,
		"longitude" : 16.569722,
		"elevation" : 183,
		"gmtoffset" : 1
	},
	{
		"iatacode" : "GRZ",
		"name" : "Graz",
		"country" : "A",
		"city" : "Graz",
		"province" : "Steiermark",
		"island" : null,
		"latitude" : 46.991067,
		"longitude" : 15.439628,
		"elevation" : 340,
		"gmtoffset" : 1
	},
	{
		"iatacode" : "KLU",
		"name" : "Woerthersee International Airport",
		"country" : "A",
		"city" : "Klagenfurt",
		"province" : "Kärnten",
		"island" : null,
		"latitude" : 46.642514,
		"longitude" : 14.337739,
		"elevation" : 138,
		"gmtoffset" : 1
	},
	{
		"iatacode" : "GYD",
		"name" : "Heydar Aliyev",
		"country" : "AZ",
		"city" : "Baku",
		"province" : "Azerbaijan",
		"island" : null,
		"latitude" : 40.4675,
		"longitude" : 50.046667,
		"elevation" : 3,
		"gmtoffset" : 4
	},
	{
		"iatacode" : "NAS",
		"name" : "Lynden Pindling Intl",
		"country" : "BS",
		"city" : "Nassau",
		"province" : "Bahamas",
		"island" : "New Providence",
		"latitude" : 25.038958,
		"longitude" : -77.466231,
		"elevation" : 5,
		"gmtoffset" : -5
	},
	{
		"iatacode" : "BAH",
		"name" : "Bahrain Intl",
		"country" : "BRN",
		"city" : "Al Manāmah",
		"province" : "Bahrain",
		"island" : "Bahrain",
		"latitude" : 26.270834,
		"longitude" : 50.63361,
		"elevation" : 2,
		"gmtoffset" : 3
	},
	{
		"iatacode" : "DAC",
		"name" : "Zia Intl",
		"country" : "BD",
		"city" : "Dhaka",
		"province" : "Dhaka",
		"island" : null,
		"latitude" : 23.843333,
		"longitude" : 90.397781,
		"elevation" : 9,
		"gmtoffset" : 6
	},
	{
		"iatacode" : "CGP",
		"name" : "Shah Amanat Intl",
		"country" : "BD",
		"city" : "Chittagong",
		"province" : "Chittagong",
		"island" : null,
		"latitude" : 22.249611,
		"longitude" : 91.813286,
		"elevation" : 4,
		"gmtoffset" : 6
	},
	{
		"iatacode" : "BGI",
		"name" : "Grantley Adams Intl",
		"country" : "BDS",
		"city" : "Bridgetown",
		"province" : "Barbados",
		"island" : "Barbados",
		"latitude" : 13.074603,
		"longitude" : -59.492456,
		"elevation" : 52,
		"gmtoffset" : -4
	},
	{
		"iatacode" : "MSQ",
		"name" : "Minsk 2",
		"country" : "BY",
		"city" : "Minsk",
		"province" : "Minsk City",
		"island" : null,
		"latitude" : 53.882469,
		"longitude" : 28.030731,
		"elevation" : 204,
		"gmtoffset" : 2
	},
	{
		"iatacode" : "ANR",
		"name" : "Deurne",
		"country" : "B",
		"city" : "Antwerpen",
		"province" : "Antwerpen",
		"island" : null,
		"latitude" : 51.189444,
		"longitude" : 4.460278,
		"elevation" : 12,
		"gmtoffset" : 1
	},
	{
		"iatacode" : "CRL",
		"name" : "Brussels South",
		"country" : "B",
		"city" : "Charleroi",
		"province" : "Hainaut",
		"island" : null,
		"latitude" : 50.459197,
		"longitude" : 4.453817,
		"elevation" : 187,
		"gmtoffset" : 1
	},
	{
		"iatacode" : "LGG",
		"name" : "Aéroport de Liège",
		"country" : "B",
		"city" : "Liège",
		"province" : "Liège",
		"island" : null,
		"latitude" : 50.6375,
		"longitude" : 5.4433,
		"elevation" : 201,
		"gmtoffset" : 1
	},
	{
		"iatacode" : "DLC",
		"name" : "Zhoushuizi",
		"country" : "CN",
		"city" : "Dalian",
		"province" : "Liaoning",
		"island" : null,
		"latitude" : 38.965667,
		"longitude" : 121.5386,
		"elevation" : 33,
		"gmtoffset" : 8
	},
	{
		"iatacode" : "BRU",
		"name" : "Brussels Natl",
		"country" : "B",
		"city" : "Bruxelles",
		"province" : "Bruxelles",
		"island" : null,
		"latitude" : 50.901389,
		"longitude" : 4.484444,
		"elevation" : 56,
		"gmtoffset" : 1
	},
	{
		"iatacode" : "BZE",
		"name" : "Philip S W Goldson Intl",
		"country" : "BZ",
		"city" : "Belize City",
		"province" : "Belize",
		"island" : null,
		"latitude" : 17.539144,
		"longitude" : -88.308203,
		"elevation" : 5,
		"gmtoffset" : -6
	},
	{
		"iatacode" : "COO",
		"name" : "Cadjehoun",
		"country" : "BEN",
		"city" : "Cotonou",
		"province" : "Benin",
		"island" : null,
		"latitude" : 6.357228,
		"longitude" : 2.384353,
		"elevation" : 6,
		"gmtoffset" : 1
	},
	{
		"iatacode" : "BDA",
		"name" : "Bermuda Intl",
		"country" : "BERM",
		"city" : "Hamilton",
		"province" : "Bermuda",
		"island" : "Grand Bermuda",
		"latitude" : 32.364042,
		"longitude" : -64.678703,
		"elevation" : 4,
		"gmtoffset" : -4
	},
	{
		"iatacode" : "PBH",
		"name" : "Paro",
		"country" : "BHT",
		"city" : "Thimphu",
		"province" : "Bhutan",
		"island" : null,
		"latitude" : 27.403192,
		"longitude" : 89.424606,
		"elevation" : 2235,
		"gmtoffset" : 6
	},
	{
		"iatacode" : "CIJ",
		"name" : "Heroes Del Acre",
		"country" : "BOL",
		"city" : "Cobija",
		"province" : "Pando",
		"island" : null,
		"latitude" : -11.040436,
		"longitude" : -68.782972,
		"elevation" : 272,
		"gmtoffset" : -4
	},
	{
		"iatacode" : "LPB",
		"name" : "El Alto Intl",
		"country" : "BOL",
		"city" : "La Paz",
		"province" : "La Paz",
		"island" : null,
		"latitude" : -16.513339,
		"longitude" : -68.192256,
		"elevation" : 4063,
		"gmtoffset" : -4
	},
	{
		"iatacode" : "VVI",
		"name" : "Viru Viru Intl",
		"country" : "BOL",
		"city" : "Santa Cruz de la Sierra",
		"province" : "Santa Cruz",
		"island" : null,
		"latitude" : -17.644756,
		"longitude" : -63.135364,
		"elevation" : 373,
		"gmtoffset" : -4
	},
	{
		"iatacode" : "SRE",
		"name" : "Juana Azurduy De Padilla",
		"country" : "BOL",
		"city" : "Sucre",
		"province" : "Chuquisaca",
		"island" : null,
		"latitude" : -19.007083,
		"longitude" : -65.288747,
		"elevation" : 2905,
		"gmtoffset" : -4
	},
	{
		"iatacode" : "TDD",
		"name" : "Tte Av Jorge Henrich Arauz",
		"country" : "BOL",
		"city" : "Trinidad",
		"province" : "Beni",
		"island" : null,
		"latitude" : -14.818739,
		"longitude" : -64.918019,
		"elevation" : 155,
		"gmtoffset" : -4
	},
	{
		"iatacode" : "TJA",
		"name" : "Capitan Oriel Lea Plaza",
		"country" : "BOL",
		"city" : "Tarija",
		"province" : "Tarija",
		"island" : null,
		"latitude" : -21.555736,
		"longitude" : -64.701325,
		"elevation" : 1855,
		"gmtoffset" : -4
	},
	{
		"iatacode" : "CBB",
		"name" : "Jorge Wilsterman",
		"country" : "BOL",
		"city" : "Cochabamba",
		"province" : "Cochabamba",
		"island" : null,
		"latitude" : -17.421058,
		"longitude" : -66.177114,
		"elevation" : 2549,
		"gmtoffset" : -4
	},
	{
		"iatacode" : "SJJ",
		"name" : "Sarajevo",
		"country" : "BIH",
		"city" : "Sarajevo",
		"province" : "Federacija Bosne i Hercegovine",
		"island" : null,
		"latitude" : 43.824583,
		"longitude" : 18.331467,
		"elevation" : 521,
		"gmtoffset" : 1
	},
	{
		"iatacode" : "GBE",
		"name" : "Sir Seretse Khama Intl",
		"country" : "RB",
		"city" : "Gaborone",
		"province" : "Botswana",
		"island" : null,
		"latitude" : -24.555225,
		"longitude" : 25.918208,
		"elevation" : 1006,
		"gmtoffset" : 2
	},
	{
		"iatacode" : "REC",
		"name" : "Guararapes Gilberto Freyre Intl",
		"country" : "BR",
		"city" : "Recife",
		"province" : "Pernambuco",
		"island" : null,
		"latitude" : -8.126794,
		"longitude" : -34.923039,
		"elevation" : 10,
		"gmtoffset" : -3
	},
	{
		"iatacode" : "BSB",
		"name" : "Presidente Juscelino Kubitschek",
		"country" : "BR",
		"city" : "Brasília",
		"province" : "Distrito Federal",
		"island" : null,
		"latitude" : -15.8711,
		"longitude" : -47.918625,
		"elevation" : 1061,
		"gmtoffset" : -3
	},
	{
		"iatacode" : "BVB",
		"name" : "Boa Vista",
		"country" : "BR",
		"city" : "Boa Vista",
		"province" : "Roraima",
		"island" : null,
		"latitude" : 2.846311,
		"longitude" : -60.690069,
		"elevation" : 84,
		"gmtoffset" : -4
	},
	{
		"iatacode" : "UDI",
		"name" : "Ten Cel Av Cesar Bombonato",
		"country" : "BR",
		"city" : "Uberlândia",
		"province" : "Minas Gerais",
		"island" : null,
		"latitude" : -18.882844,
		"longitude" : -48.225594,
		"elevation" : 943,
		"gmtoffset" : -3
	},
	{
		"iatacode" : "MCZ",
		"name" : "Zumbi Dos Palmares",
		"country" : "BR",
		"city" : "Maceió",
		"province" : "Alagoas",
		"island" : null,
		"latitude" : -9.510808,
		"longitude" : -35.791678,
		"elevation" : 118,
		"gmtoffset" : -3
	},
	{
		"iatacode" : "MCP",
		"name" : "Macapa",
		"country" : "BR",
		"city" : "Macapá",
		"province" : "Amapá",
		"island" : null,
		"latitude" : 0.050664,
		"longitude" : -51.072178,
		"elevation" : 17,
		"gmtoffset" : -3
	},
	{
		"iatacode" : "MAO",
		"name" : "Eduardo Gomes Intl",
		"country" : "BR",
		"city" : "Manaus",
		"province" : "Amazonas",
		"island" : null,
		"latitude" : -3.038611,
		"longitude" : -60.049721,
		"elevation" : 80,
		"gmtoffset" : -4
	},
	{
		"iatacode" : "VIX",
		"name" : "Goiabeiras",
		"country" : "BR",
		"city" : "Vitória",
		"province" : "Espírito Santo",
		"island" : null,
		"latitude" : -20.258056,
		"longitude" : -40.286389,
		"elevation" : 3,
		"gmtoffset" : -3
	},
	{
		"iatacode" : "CWB",
		"name" : "Afonso Pena",
		"country" : "BR",
		"city" : "Curitiba",
		"province" : "Paraná",
		"island" : null,
		"latitude" : -25.528475,
		"longitude" : -49.175775,
		"elevation" : 911,
		"gmtoffset" : -3
	},
	{
		"iatacode" : "STM",
		"name" : "Santarem",
		"country" : "BR",
		"city" : "Santarém",
		"province" : "Pará",
		"island" : null,
		"latitude" : -2.422431,
		"longitude" : -54.792789,
		"elevation" : 60,
		"gmtoffset" : -4
	},
	{
		"iatacode" : "LDB",
		"name" : "Londrina",
		"country" : "BR",
		"city" : "Londrina",
		"province" : "Paraná",
		"island" : null,
		"latitude" : -23.333625,
		"longitude" : -51.130072,
		"elevation" : 569,
		"gmtoffset" : -3
	},
	{
		"iatacode" : "CGB",
		"name" : "Marechal Rondon",
		"country" : "BR",
		"city" : "Cuiabá",
		"province" : "Mato Grosso",
		"island" : null,
		"latitude" : -15.652931,
		"longitude" : -56.116719,
		"elevation" : 188,
		"gmtoffset" : -4
	},
	{
		"iatacode" : "CGR",
		"name" : "Campo Grande",
		"country" : "BR",
		"city" : "Campo Grande",
		"province" : "Mato Grosso do Sul",
		"island" : null,
		"latitude" : -20.468667,
		"longitude" : -54.6725,
		"elevation" : 559,
		"gmtoffset" : -4
	},
	{
		"iatacode" : "CGH",
		"name" : "Congonhas",
		"country" : "BR",
		"city" : "São Paulo",
		"province" : "São Paulo",
		"island" : null,
		"latitude" : -23.626692,
		"longitude" : -46.655375,
		"elevation" : 802,
		"gmtoffset" : -3
	},
	{
		"iatacode" : "SDU",
		"name" : "Santos Dumont",
		"country" : "BR",
		"city" : "Rio de Janeiro",
		"province" : "Rio de Janeiro",
		"island" : null,
		"latitude" : -22.910461,
		"longitude" : -43.163133,
		"elevation" : 3,
		"gmtoffset" : -3
	},
	{
		"iatacode" : "SSA",
		"name" : "Deputado Luis Eduardo Magalhaes",
		"country" : "BR",
		"city" : "Salvador",
		"province" : "Bahia",
		"island" : null,
		"latitude" : -12.910994,
		"longitude" : -38.331044,
		"elevation" : 20,
		"gmtoffset" : -3
	},
	{
		"iatacode" : "CNF",
		"name" : "Tancredo Neves Intl",
		"country" : "BR",
		"city" : "Belo Horizonte",
		"province" : "Minas Gerais",
		"island" : null,
		"latitude" : -19.63375,
		"longitude" : -43.968856,
		"elevation" : 828,
		"gmtoffset" : -3
	},
	{
		"iatacode" : "SLZ",
		"name" : "Marechal Cunha Machado Intl",
		"country" : "BR",
		"city" : "São Luís",
		"province" : "Maranhão",
		"island" : null,
		"latitude" : -2.585361,
		"longitude" : -44.234139,
		"elevation" : 54,
		"gmtoffset" : -3
	},
	{
		"iatacode" : "CPQ",
		"name" : "Amarais Airport",
		"country" : "BR",
		"city" : "Campinas",
		"province" : "São Paulo",
		"island" : null,
		"latitude" : -22.8592,
		"longitude" : -47.1082,
		"elevation" : 612,
		"gmtoffset" : -4
	},
	{
		"iatacode" : "VCP",
		"name" : "Viracopos",
		"country" : "BR",
		"city" : "Campinas",
		"province" : "São Paulo",
		"island" : null,
		"latitude" : -23.0075,
		"longitude" : -47.134444,
		"elevation" : 662,
		"gmtoffset" : -3
	},
	{
		"iatacode" : "AJU",
		"name" : "Santa Maria",
		"country" : "BR",
		"city" : "Aracaju",
		"province" : "Sergipe",
		"island" : null,
		"latitude" : -10.984,
		"longitude" : -37.070333,
		"elevation" : 7,
		"gmtoffset" : -3
	},
	{
		"iatacode" : "UBA",
		"name" : "Uberaba",
		"country" : "BR",
		"city" : "Uberaba",
		"province" : "Minas Gerais",
		"island" : null,
		"latitude" : -19.765,
		"longitude" : -47.964778,
		"elevation" : 809,
		"gmtoffset" : -3
	},
	{
		"iatacode" : "BEL",
		"name" : "Val De Cans Intl",
		"country" : "BR",
		"city" : "Belém",
		"province" : "Pará",
		"island" : null,
		"latitude" : -1.37925,
		"longitude" : -48.476292,
		"elevation" : 16,
		"gmtoffset" : -3
	},
	{
		"iatacode" : "THE",
		"name" : "Senador Petronio Portella",
		"country" : "BR",
		"city" : "Teresina",
		"province" : "Piauí",
		"island" : null,
		"latitude" : -5.059942,
		"longitude" : -42.823478,
		"elevation" : 67,
		"gmtoffset" : -3
	},
	{
		"iatacode" : "NAT",
		"name" : "Augusto Severo",
		"country" : "BR",
		"city" : "Natal",
		"province" : "Rio Grande do Norte",
		"island" : null,
		"latitude" : -5.911417,
		"longitude" : -35.247717,
		"elevation" : 52,
		"gmtoffset" : -3
	},
	{
		"iatacode" : "PET",
		"name" : "Pelotas",
		"country" : "BR",
		"city" : "Pelotas",
		"province" : "Rio Grande do Sul",
		"island" : null,
		"latitude" : -31.718353,
		"longitude" : -52.327689,
		"elevation" : 18,
		"gmtoffset" : -3
	},
	{
		"iatacode" : "RAO",
		"name" : "Leite Lopes",
		"country" : "BR",
		"city" : "Ribeirão Preto",
		"province" : "São Paulo",
		"island" : null,
		"latitude" : -21.134167,
		"longitude" : -47.774189,
		"elevation" : 549,
		"gmtoffset" : -3
	},
	{
		"iatacode" : "RVD",
		"name" : "General Leite de Castro Airport",
		"country" : "BR",
		"city" : "Rio Verde",
		"province" : "Goiás",
		"island" : null,
		"latitude" : -17.790278,
		"longitude" : -50.918333,
		"elevation" : 684,
		"gmtoffset" : -3
	},
	{
		"iatacode" : "GVR",
		"name" : "Governador Valadares Airport",
		"country" : "BR",
		"city" : "Governador Valadares",
		"province" : "Minas Gerais",
		"island" : null,
		"latitude" : -18.8952,
		"longitude" : -41.9822,
		"elevation" : 171,
		"gmtoffset" : -3
	},
	{
		"iatacode" : "IPN",
		"name" : "Usiminas",
		"country" : "BR",
		"city" : "Ipatinga",
		"province" : "Minas Gerais",
		"island" : null,
		"latitude" : -19.470722,
		"longitude" : -42.487583,
		"elevation" : 239,
		"gmtoffset" : -3
	},
	{
		"iatacode" : "CXJ",
		"name" : "Campo Dos Bugres",
		"country" : "BR",
		"city" : "Caxias do Sul",
		"province" : "Rio Grande do Sul",
		"island" : null,
		"latitude" : -29.197064,
		"longitude" : -51.187536,
		"elevation" : 754,
		"gmtoffset" : -3
	},
	{
		"iatacode" : "GIG",
		"name" : "Galeao Antonio Carlos Jobim",
		"country" : "BR",
		"city" : "Rio de Janeiro",
		"province" : "Rio de Janeiro",
		"island" : null,
		"latitude" : -22.808903,
		"longitude" : -43.243647,
		"elevation" : 9,
		"gmtoffset" : -3
	},
	{
		"iatacode" : "FOR",
		"name" : "Pinto Martins Intl",
		"country" : "BR",
		"city" : "Fortaleza",
		"province" : "Ceará",
		"island" : null,
		"latitude" : -3.776283,
		"longitude" : -38.532556,
		"elevation" : 25,
		"gmtoffset" : -3
	},
	{
		"iatacode" : "PLU",
		"name" : "Pampulha Carlos Drummond De Andrade",
		"country" : "BR",
		"city" : "Belo Horizonte",
		"province" : "Minas Gerais",
		"island" : null,
		"latitude" : -19.851181,
		"longitude" : -43.950628,
		"elevation" : 789,
		"gmtoffset" : -3
	},
	{
		"iatacode" : "PVH",
		"name" : "Governador Jorge Teixeira De Oliveira",
		"country" : "BR",
		"city" : "Porto Velho",
		"province" : "Rondônia",
		"island" : null,
		"latitude" : -8.709294,
		"longitude" : -63.902281,
		"elevation" : 90,
		"gmtoffset" : -4
	},
	{
		"iatacode" : "GYN",
		"name" : "Santa Genoveva",
		"country" : "BR",
		"city" : "Goiânia",
		"province" : "Goiás",
		"island" : null,
		"latitude" : -16.632033,
		"longitude" : -49.220686,
		"elevation" : 747,
		"gmtoffset" : -3
	},
	{
		"iatacode" : "POA",
		"name" : "Salgado Filho",
		"country" : "BR",
		"city" : "Porto Alegre",
		"province" : "Rio Grande do Sul",
		"island" : null,
		"latitude" : -29.994428,
		"longitude" : -51.171428,
		"elevation" : 3,
		"gmtoffset" : -3
	},
	{
		"iatacode" : "GRU",
		"name" : "Guarulhos Gov Andre Franco Montouro",
		"country" : "BR",
		"city" : "São Paulo",
		"province" : "São Paulo",
		"island" : null,
		"latitude" : -23.432075,
		"longitude" : -46.469511,
		"elevation" : 750,
		"gmtoffset" : -3
	},
	{
		"iatacode" : "IMP",
		"name" : "Prefeito Renato Moreira",
		"country" : "BR",
		"city" : "Imperatriz",
		"province" : "Maranhão",
		"island" : null,
		"latitude" : -5.531292,
		"longitude" : -47.46005,
		"elevation" : 131,
		"gmtoffset" : -3
	},
	{
		"iatacode" : "IOS",
		"name" : "Ilheus",
		"country" : "BR",
		"city" : "Ilhéus",
		"province" : "Bahia",
		"island" : null,
		"latitude" : -14.815964,
		"longitude" : -39.033197,
		"elevation" : 5,
		"gmtoffset" : -3
	},
	{
		"iatacode" : "EIS",
		"name" : "Terrance B Lettsome Intl",
		"country" : "BVIR",
		"city" : "Road Town",
		"province" : "British Virgin Islands",
		"island" : "Tortola",
		"latitude" : 18.444834,
		"longitude" : -64.542975,
		"elevation" : 5,
		"gmtoffset" : -4
	},
	{
		"iatacode" : "BWN",
		"name" : "Brunei Intl",
		"country" : "BRU",
		"city" : "Bandar Seri Begawan",
		"province" : "Brunei",
		"island" : "Borneo",
		"latitude" : 4.9442,
		"longitude" : 114.928353,
		"elevation" : 22,
		"gmtoffset" : 8
	},
	{
		"iatacode" : "BOJ",
		"name" : "Burgas",
		"country" : "BG",
		"city" : "Burgas",
		"province" : "Bulgaria",
		"island" : null,
		"latitude" : 42.569583,
		"longitude" : 27.515236,
		"elevation" : 41,
		"gmtoffset" : 2
	},
	{
		"iatacode" : "VAR",
		"name" : "Varna",
		"country" : "BG",
		"city" : "Varna",
		"province" : "Bulgaria",
		"island" : null,
		"latitude" : 43.232072,
		"longitude" : 27.825106,
		"elevation" : 70,
		"gmtoffset" : 2
	},
	{
		"iatacode" : "PDV",
		"name" : "Plovdiv",
		"country" : "BG",
		"city" : "Plovdiv",
		"province" : "Bulgaria",
		"island" : null,
		"latitude" : 42.067806,
		"longitude" : 24.850833,
		"elevation" : 182,
		"gmtoffset" : 2
	},
	{
		"iatacode" : "SOF",
		"name" : "Sofia",
		"country" : "BG",
		"city" : "Sofia",
		"province" : "Bulgaria",
		"island" : null,
		"latitude" : 42.695194,
		"longitude" : 23.406167,
		"elevation" : 531,
		"gmtoffset" : 2
	},
	{
		"iatacode" : "BOY",
		"name" : "Bobo Dioulasso",
		"country" : "BF",
		"city" : "Bobo Dioulasso",
		"province" : "Burkina Faso",
		"island" : null,
		"latitude" : 11.160056,
		"longitude" : -4.330969,
		"elevation" : 461,
		"gmtoffset" : 0
	},
	{
		"iatacode" : "OUA",
		"name" : "Ouagadougou",
		"country" : "BF",
		"city" : "Ouagadougou",
		"province" : "Burkina Faso",
		"island" : null,
		"latitude" : 12.353194,
		"longitude" : -1.512417,
		"elevation" : 316,
		"gmtoffset" : 0
	},
	{
		"iatacode" : "MDL",
		"name" : "Mandalay Intl",
		"country" : "MYA",
		"city" : "Mandalay",
		"province" : "Mandalay",
		"island" : null,
		"latitude" : 21.702156,
		"longitude" : 95.977928,
		"elevation" : 91,
		"gmtoffset" : 6.5
	},
	{
		"iatacode" : "RGN",
		"name" : "Yangon Intl",
		"country" : "MYA",
		"city" : "Yangon",
		"province" : "Yangon",
		"island" : null,
		"latitude" : 16.907305,
		"longitude" : 96.133222,
		"elevation" : 33,
		"gmtoffset" : 6.5
	},
	{
		"iatacode" : "BJM",
		"name" : "Bujumbura Intl",
		"country" : "BI",
		"city" : "Bujumbura",
		"province" : "Burundi",
		"island" : null,
		"latitude" : -3.324019,
		"longitude" : 29.318519,
		"elevation" : 787,
		"gmtoffset" : 2
	},
	{
		"iatacode" : "PNH",
		"name" : "Phnom Penh Intl",
		"country" : "K",
		"city" : "Phnom Penh",
		"province" : "Cambodia",
		"island" : null,
		"latitude" : 11.546556,
		"longitude" : 104.844139,
		"elevation" : 12,
		"gmtoffset" : 7
	},
	{
		"iatacode" : "DLA",
		"name" : "Douala",
		"country" : "CAM",
		"city" : "Douala",
		"province" : "Littoral",
		"island" : null,
		"latitude" : 4.006081,
		"longitude" : 9.719481,
		"elevation" : 10,
		"gmtoffset" : 1
	},
	{
		"iatacode" : "NSI",
		"name" : "Yaounde Nsimalen",
		"country" : "CAM",
		"city" : "Yaoundé",
		"province" : "Centre",
		"island" : null,
		"latitude" : 3.722556,
		"longitude" : 11.553269,
		"elevation" : 695,
		"gmtoffset" : 1
	},
	{
		"iatacode" : "YQX",
		"name" : "Gander Intl",
		"country" : "CDN",
		"city" : "Gander",
		"province" : "Newfoundland and Labrador",
		"island" : "Newfoundland",
		"latitude" : 48.936944,
		"longitude" : -54.568056,
		"elevation" : 151,
		"gmtoffset" : -4
	},
	{
		"iatacode" : "YXY",
		"name" : "Whitehorse Intl",
		"country" : "CDN",
		"city" : "Whitehorse",
		"province" : "Yukon",
		"island" : null,
		"latitude" : 60.709553,
		"longitude" : -135.067269,
		"elevation" : 706,
		"gmtoffset" : -8
	},
	{
		"iatacode" : "YFB",
		"name" : "Iqaluit",
		"country" : "CDN",
		"city" : "Iqaluit",
		"province" : "Nunavut",
		"island" : "Baffin Island",
		"latitude" : 63.75639,
		"longitude" : -68.555832,
		"elevation" : 34,
		"gmtoffset" : -5
	},
	{
		"iatacode" : "YYT",
		"name" : "St Johns Intl",
		"country" : "CDN",
		"city" : "St. John's",
		"province" : "Newfoundland and Labrador",
		"island" : "Newfoundland",
		"latitude" : 47.61861,
		"longitude" : -52.751945,
		"elevation" : 141,
		"gmtoffset" : -3.5
	},
	{
		"iatacode" : "YYZ",
		"name" : "Lester B Pearson Intl",
		"country" : "CDN",
		"city" : "Toronto",
		"province" : "Ontario",
		"island" : null,
		"latitude" : 43.677223,
		"longitude" : -79.630556,
		"elevation" : 173,
		"gmtoffset" : -5
	},
	{
		"iatacode" : "YYC",
		"name" : "Calgary Intl",
		"country" : "CDN",
		"city" : "Calgary",
		"province" : "Alberta",
		"island" : null,
		"latitude" : 51.113888,
		"longitude" : -114.020278,
		"elevation" : 1084,
		"gmtoffset" : -7
	},
	{
		"iatacode" : "YYJ",
		"name" : "Victoria Intl",
		"country" : "CDN",
		"city" : "Victoria",
		"province" : "British Columbia",
		"island" : "Vancouver Island",
		"latitude" : 48.646944,
		"longitude" : -123.425833,
		"elevation" : 19,
		"gmtoffset" : -8
	},
	{
		"iatacode" : "YXU",
		"name" : "London",
		"country" : "CDN",
		"city" : "London",
		"province" : "Ontario",
		"island" : null,
		"latitude" : 43.033056,
		"longitude" : -81.151111,
		"elevation" : 278,
		"gmtoffset" : -5
	},
	{
		"iatacode" : "YXE",
		"name" : "Saskatoon J G Diefenbaker Intl",
		"country" : "CDN",
		"city" : "Saskatoon",
		"province" : "Saskatchewan",
		"island" : null,
		"latitude" : 52.170834,
		"longitude" : -106.699722,
		"elevation" : 504,
		"gmtoffset" : -6
	},
	{
		"iatacode" : "YZF",
		"name" : "Yellowknife",
		"country" : "CDN",
		"city" : "Yellowknife",
		"province" : "Northwest Territories",
		"island" : null,
		"latitude" : 62.462778,
		"longitude" : -114.440278,
		"elevation" : 206,
		"gmtoffset" : -7
	},
	{
		"iatacode" : "YQB",
		"name" : "Quebec Jean Lesage Intl",
		"country" : "CDN",
		"city" : "Quebec",
		"province" : "Quebec",
		"island" : null,
		"latitude" : 46.791111,
		"longitude" : -71.393333,
		"elevation" : 74,
		"gmtoffset" : -5
	},
	{
		"iatacode" : "YQT",
		"name" : "Thunder Bay",
		"country" : "CDN",
		"city" : "Thunder Bay",
		"province" : "Ontario",
		"island" : null,
		"latitude" : 48.371944,
		"longitude" : -89.323889,
		"elevation" : 199,
		"gmtoffset" : -5
	},
	{
		"iatacode" : "YQR",
		"name" : "Regina Intl",
		"country" : "CDN",
		"city" : "Regina",
		"province" : "Saskatchewan",
		"island" : null,
		"latitude" : 50.431944,
		"longitude" : -104.665833,
		"elevation" : 577,
		"gmtoffset" : -6
	},
	{
		"iatacode" : "YOW",
		"name" : "Ottawa Macdonald Cartier Intl",
		"country" : "CDN",
		"city" : "Ottawa",
		"province" : "Ontario",
		"island" : null,
		"latitude" : 45.3225,
		"longitude" : -75.669167,
		"elevation" : 114,
		"gmtoffset" : -5
	},
	{
		"iatacode" : "YUL",
		"name" : "Pierre Elliott Trudeau Intl",
		"country" : "CDN",
		"city" : "Montréal",
		"province" : "Quebec",
		"island" : null,
		"latitude" : 45.470556,
		"longitude" : -73.740833,
		"elevation" : 36,
		"gmtoffset" : -5
	},
	{
		"iatacode" : "YTZ",
		"name" : "City Centre",
		"country" : "CDN",
		"city" : "Toronto",
		"province" : "Ontario",
		"island" : null,
		"latitude" : 43.627499,
		"longitude" : -79.396167,
		"elevation" : 77,
		"gmtoffset" : -5
	},
	{
		"iatacode" : "YWG",
		"name" : "Winnipeg Intl",
		"country" : "CDN",
		"city" : "Winnipeg",
		"province" : "Manitoba",
		"island" : null,
		"latitude" : 49.910036,
		"longitude" : -97.239886,
		"elevation" : 239,
		"gmtoffset" : -6
	},
	{
		"iatacode" : "YVR",
		"name" : "Vancouver Intl",
		"country" : "CDN",
		"city" : "Vancouver",
		"province" : "British Columbia",
		"island" : null,
		"latitude" : 49.193889,
		"longitude" : -123.184444,
		"elevation" : 4,
		"gmtoffset" : -8
	},
	{
		"iatacode" : "YHM",
		"name" : "Hamilton",
		"country" : "CDN",
		"city" : "Hamilton",
		"province" : "Ontario",
		"island" : null,
		"latitude" : 43.173611,
		"longitude" : -79.935,
		"elevation" : 238,
		"gmtoffset" : -5
	},
	{
		"iatacode" : "YHZ",
		"name" : "Halifax Intl",
		"country" : "CDN",
		"city" : "Halifax",
		"province" : "Nova Scotia",
		"island" : null,
		"latitude" : 44.880833,
		"longitude" : -63.50861,
		"elevation" : 145,
		"gmtoffset" : -4
	},
	{
		"iatacode" : "YEG",
		"name" : "Edmonton Intl",
		"country" : "CDN",
		"city" : "Edmonton",
		"province" : "Alberta",
		"island" : null,
		"latitude" : 53.309723,
		"longitude" : -113.579722,
		"elevation" : 723,
		"gmtoffset" : -7
	},
	{
		"iatacode" : "RAI",
		"name" : "Praia International Airport",
		"country" : "CV",
		"city" : "Praia",
		"province" : "Cape Verde",
		"island" : "Santiago",
		"latitude" : 14.9245,
		"longitude" : -23.4935,
		"elevation" : 70,
		"gmtoffset" : -1
	},
	{
		"iatacode" : "LYB",
		"name" : "Edward Bodden Airfield",
		"country" : "CAYM",
		"city" : null,
		"province" : null,
		"island" : "Little Cayman",
		"latitude" : 19.6591666667,
		"longitude" : -80.09083333,
		"elevation" : 1,
		"gmtoffset" : -5
	},
	{
		"iatacode" : "GCM",
		"name" : "Owen Roberts Intl",
		"country" : "CAYM",
		"city" : "George Town",
		"province" : "Cayman Islands",
		"island" : "Grand Cayman",
		"latitude" : 19.292778,
		"longitude" : -81.35775,
		"elevation" : 2,
		"gmtoffset" : -5
	},
	{
		"iatacode" : "CYB",
		"name" : "Gerrard Smith Intl",
		"country" : "CAYM",
		"city" : null,
		"province" : null,
		"island" : "Cayman Brac",
		"latitude" : 19.686981,
		"longitude" : -79.882789,
		"elevation" : 2,
		"gmtoffset" : -5
	},
	{
		"iatacode" : "BGF",
		"name" : "Bangui M Poko",
		"country" : "RCA",
		"city" : "Bangui",
		"province" : "Central African Republic",
		"island" : null,
		"latitude" : 4.398475,
		"longitude" : 18.518786,
		"elevation" : 368,
		"gmtoffset" : 1
	},
	{
		"iatacode" : "NDJ",
		"name" : "Ndjamena Hassan Djamous",
		"country" : "TCH",
		"city" : "N'Djamena",
		"province" : "Chad",
		"island" : null,
		"latitude" : 12.133689,
		"longitude" : 15.034019,
		"elevation" : 295,
		"gmtoffset" : 1
	},
	{
		"iatacode" : "ANF",
		"name" : "Cerro Moreno Intl",
		"country" : "RCH",
		"city" : "Antofagasta",
		"province" : "Antofagasta",
		"island" : null,
		"latitude" : -23.444478,
		"longitude" : -70.4451,
		"elevation" : 139,
		"gmtoffset" : -4
	},
	{
		"iatacode" : "ZAL",
		"name" : "Pichoy",
		"country" : "RCH",
		"city" : "Valdivia",
		"province" : "Ríos",
		"island" : null,
		"latitude" : -39.649956,
		"longitude" : -73.086111,
		"elevation" : 18,
		"gmtoffset" : -4
	},
	{
		"iatacode" : "LSC",
		"name" : "La Florida",
		"country" : "RCH",
		"city" : "La Serena",
		"province" : "Coquimbo",
		"island" : null,
		"latitude" : -29.916233,
		"longitude" : -71.199522,
		"elevation" : 147,
		"gmtoffset" : -4
	},
	{
		"iatacode" : "CPO",
		"name" : "Copiapo",
		"country" : "RCH",
		"city" : "Copiapó",
		"province" : "Atacama",
		"island" : null,
		"latitude" : -27,
		"longitude" : -70,
		"elevation" : 305,
		"gmtoffset" : -4
	},
	{
		"iatacode" : "CCP",
		"name" : "Carriel Sur Intl",
		"country" : "RCH",
		"city" : "Concepción",
		"province" : "Bío-Bío",
		"island" : null,
		"latitude" : -36.77265,
		"longitude" : -73.063106,
		"elevation" : 8,
		"gmtoffset" : -4
	},
	{
		"iatacode" : "ZCO",
		"name" : "Maquehue",
		"country" : "RCH",
		"city" : "Temuco",
		"province" : "Araucanía",
		"island" : null,
		"latitude" : -38.766819,
		"longitude" : -72.637097,
		"elevation" : 93,
		"gmtoffset" : -4
	},
	{
		"iatacode" : "SCL",
		"name" : "Arturo Merino Benitez Intl",
		"country" : "RCH",
		"city" : "Santiago",
		"province" : "Santiago",
		"island" : null,
		"latitude" : -33.392975,
		"longitude" : -70.785803,
		"elevation" : 474,
		"gmtoffset" : -4
	},
	{
		"iatacode" : "IQQ",
		"name" : "Diego Aracena Intl",
		"country" : "RCH",
		"city" : "Iquique",
		"province" : "Tarapacá",
		"island" : null,
		"latitude" : -20.535222,
		"longitude" : -70.181275,
		"elevation" : 47,
		"gmtoffset" : -4
	},
	{
		"iatacode" : "ARI",
		"name" : "Chacalluta",
		"country" : "RCH",
		"city" : "Arica",
		"province" : "Arica y Parinacota",
		"island" : null,
		"latitude" : -18.348531,
		"longitude" : -70.338742,
		"elevation" : 51,
		"gmtoffset" : -4
	},
	{
		"iatacode" : "PMC",
		"name" : "El Tepual Intl",
		"country" : "RCH",
		"city" : "Puerto Montt",
		"province" : "Lagos",
		"island" : null,
		"latitude" : -41.438886,
		"longitude" : -73.093953,
		"elevation" : 90,
		"gmtoffset" : -4
	},
	{
		"iatacode" : "PUQ",
		"name" : "Carlos Ibanez Del Campo Intl",
		"country" : "RCH",
		"city" : "Punta Arenas",
		"province" : "Magallanes",
		"island" : null,
		"latitude" : -53.002642,
		"longitude" : -70.854586,
		"elevation" : 42,
		"gmtoffset" : -4
	},
	{
		"iatacode" : "HGH",
		"name" : "Xiaoshan",
		"country" : "CN",
		"city" : "Hangzhou",
		"province" : "Zhejiang",
		"island" : null,
		"latitude" : 30.229503,
		"longitude" : 120.434453,
		"elevation" : 7,
		"gmtoffset" : 8
	},
	{
		"iatacode" : "XMN",
		"name" : "Gaoqi",
		"country" : "CN",
		"city" : "Xiamen",
		"province" : "Fujian",
		"island" : null,
		"latitude" : 24.544036,
		"longitude" : 118.127739,
		"elevation" : 18,
		"gmtoffset" : 8
	},
	{
		"iatacode" : "HLD",
		"name" : "Dongshan",
		"country" : "CN",
		"city" : "Hailar",
		"province" : "Nei Mongol",
		"island" : null,
		"latitude" : 49.204997,
		"longitude" : 119.825,
		"elevation" : 661,
		"gmtoffset" : 8
	},
	{
		"iatacode" : "XFN",
		"name" : "Xiangfan Airport",
		"country" : "CN",
		"city" : "Xiangyang",
		"province" : "Hubei",
		"island" : null,
		"latitude" : 32.1506,
		"longitude" : 112.291,
		"elevation" : null,
		"gmtoffset" : 8
	},
	{
		"iatacode" : "XIC",
		"name" : "Qingshan",
		"country" : "CN",
		"city" : "Xichang",
		"province" : "Sichuan",
		"island" : null,
		"latitude" : 27.989083,
		"longitude" : 102.184361,
		"elevation" : 1559,
		"gmtoffset" : 8
	},
	{
		"iatacode" : "HAK",
		"name" : "Meilan",
		"country" : "CN",
		"city" : "Haikou",
		"province" : "Hainan",
		"island" : "Hainan",
		"latitude" : 19.934856,
		"longitude" : 110.458961,
		"elevation" : 23,
		"gmtoffset" : 8
	},
	{
		"iatacode" : "HET",
		"name" : "Baita Airport",
		"country" : "CN",
		"city" : "Hohhot",
		"province" : "Nei Mongol",
		"island" : null,
		"latitude" : 40.851422,
		"longitude" : 111.824103,
		"elevation" : 1084,
		"gmtoffset" : 8
	},
	{
		"iatacode" : "PEK",
		"name" : "Capital Intl",
		"country" : "CN",
		"city" : "Beijing",
		"province" : "Beijing",
		"island" : null,
		"latitude" : 40.080111,
		"longitude" : 116.584556,
		"elevation" : 35,
		"gmtoffset" : 8
	},
	{
		"iatacode" : "PVG",
		"name" : "Pudong",
		"country" : "CN",
		"city" : "Shanghai",
		"province" : "Shanghai",
		"island" : null,
		"latitude" : 31.143378,
		"longitude" : 121.805214,
		"elevation" : 4,
		"gmtoffset" : 8
	},
	{
		"iatacode" : "WXN",
		"name" : "Wanzhou Wuqiao Airport",
		"country" : "CN",
		"city" : "Wanxian",
		"province" : "Sichuan",
		"island" : null,
		"latitude" : 30.8361,
		"longitude" : 108.406,
		"elevation" : 567,
		"gmtoffset" : 8
	},
	{
		"iatacode" : "WUH",
		"name" : "Tianhe",
		"country" : "CN",
		"city" : "Wuhan",
		"province" : "Hubei",
		"island" : null,
		"latitude" : 30.783758,
		"longitude" : 114.2081,
		"elevation" : 34,
		"gmtoffset" : 8
	},
	{
		"iatacode" : "WUX",
		"name" : "Wuxi Airport",
		"country" : "CN",
		"city" : "Wuxi",
		"province" : "Jiangsu",
		"island" : null,
		"latitude" : 31.4944,
		"longitude" : 120.429,
		"elevation" : 5,
		"gmtoffset" : 8
	},
	{
		"iatacode" : "WNZ",
		"name" : "Wenzhou Longwan Airport",
		"country" : "CN",
		"city" : "Wenzhou",
		"province" : "Zhejiang",
		"island" : null,
		"latitude" : 27.9122,
		"longitude" : 120.852,
		"elevation" : null,
		"gmtoffset" : 8
	},
	{
		"iatacode" : "INC",
		"name" : "Yinchuan",
		"country" : "CN",
		"city" : "Yinchuan",
		"province" : "Ningxia",
		"island" : null,
		"latitude" : 38.481944,
		"longitude" : 106.009167,
		"elevation" : 1098,
		"gmtoffset" : 8
	},
	{
		"iatacode" : "ZUH",
		"name" : "Zhuhai Airport",
		"country" : "CN",
		"city" : "Zhuhai",
		"province" : "Guangdong",
		"island" : null,
		"latitude" : 22.0064,
		"longitude" : 113.376,
		"elevation" : 7,
		"gmtoffset" : 8
	},
	{
		"iatacode" : "HRB",
		"name" : "Taiping",
		"country" : "CN",
		"city" : "Harbin",
		"province" : "Heilongjiang",
		"island" : null,
		"latitude" : 45.623403,
		"longitude" : 126.250328,
		"elevation" : 139,
		"gmtoffset" : 8
	},
	{
		"iatacode" : "JMU",
		"name" : "Jiamusi Airport",
		"country" : "CN",
		"city" : "Jiamusi",
		"province" : "Heilongjiang",
		"island" : null,
		"latitude" : 46.843394,
		"longitude" : 130.465389,
		"elevation" : 80,
		"gmtoffset" : 8
	},
	{
		"iatacode" : "CGQ",
		"name" : "Changchun",
		"country" : "CN",
		"city" : "Changchun",
		"province" : "Jilin",
		"island" : null,
		"latitude" : 43.5412,
		"longitude" : 125.1201,
		"elevation" : 69,
		"gmtoffset" : 8
	},
	{
		"iatacode" : "CGO",
		"name" : "Xinzheng",
		"country" : "CN",
		"city" : "Zhengzhou",
		"province" : "Henan",
		"island" : null,
		"latitude" : 34.519672,
		"longitude" : 113.840889,
		"elevation" : 151,
		"gmtoffset" : 8
	},
	{
		"iatacode" : "LHW",
		"name" : "Lanzhou Airport",
		"country" : "CN",
		"city" : "Lanzhou",
		"province" : "Gansu",
		"island" : null,
		"latitude" : 36.117,
		"longitude" : 103.617,
		"elevation" : 1948,
		"gmtoffset" : 8
	},
	{
		"iatacode" : "SJW",
		"name" : "Shijiazhuang Daguocun International Airport",
		"country" : "CN",
		"city" : "Shijiazhuang",
		"province" : "Hebei",
		"island" : null,
		"latitude" : 38.280686,
		"longitude" : 114.6973,
		"elevation" : 71,
		"gmtoffset" : 8
	},
	{
		"iatacode" : "CKG",
		"name" : "Jiangbei",
		"country" : "CN",
		"city" : "Chongqing",
		"province" : "Chongqing",
		"island" : null,
		"latitude" : 29.719217,
		"longitude" : 106.641678,
		"elevation" : 416,
		"gmtoffset" : 8
	},
	{
		"iatacode" : "CSX",
		"name" : "Huanghua",
		"country" : "CN",
		"city" : "Changsha",
		"province" : "Hunan",
		"island" : null,
		"latitude" : 28.189158,
		"longitude" : 113.219633,
		"elevation" : 66,
		"gmtoffset" : 8
	},
	{
		"iatacode" : "BHY",
		"name" : "Beihai Airport",
		"country" : "CN",
		"city" : "Beihai",
		"province" : "Guangxi",
		"island" : null,
		"latitude" : 21.5394,
		"longitude" : 109.294,
		"elevation" : null,
		"gmtoffset" : 8
	},
	{
		"iatacode" : "TGO",
		"name" : "Tongliao Airport",
		"country" : "CN",
		"city" : "Tongliao",
		"province" : "Nei Mongol",
		"island" : null,
		"latitude" : 43.5567,
		"longitude" : 122.2,
		"elevation" : 730,
		"gmtoffset" : 8
	},
	{
		"iatacode" : "KHN",
		"name" : "Changbei Intl",
		"country" : "CN",
		"city" : "Nanchang",
		"province" : "Jiangxi",
		"island" : null,
		"latitude" : 28.865,
		"longitude" : 115.9,
		"elevation" : 44,
		"gmtoffset" : 8
	},
	{
		"iatacode" : "KMG",
		"name" : "Wujiaba",
		"country" : "CN",
		"city" : "Kunming",
		"province" : "Yunnan",
		"island" : null,
		"latitude" : 24.992364,
		"longitude" : 102.743536,
		"elevation" : 1895,
		"gmtoffset" : 8
	},
	{
		"iatacode" : "TSN",
		"name" : "Binhai",
		"country" : "CN",
		"city" : "Tianjin",
		"province" : "Tianjin",
		"island" : null,
		"latitude" : 39.124353,
		"longitude" : 117.346183,
		"elevation" : 3,
		"gmtoffset" : 8
	},
	{
		"iatacode" : "BAV",
		"name" : "Baotou Airport",
		"country" : "CN",
		"city" : "Baotou",
		"province" : "Nei Mongol",
		"island" : null,
		"latitude" : 40.56,
		"longitude" : 109.997,
		"elevation" : 1013,
		"gmtoffset" : 8
	},
	{
		"iatacode" : "NDG",
		"name" : "Qiqihar Sanjiazi Airport",
		"country" : "CN",
		"city" : "Qiqihar",
		"province" : "Heilongjiang",
		"island" : null,
		"latitude" : 47.239628,
		"longitude" : 123.918131,
		"elevation" : 145,
		"gmtoffset" : 8
	},
	{
		"iatacode" : "NNG",
		"name" : "Wuxu",
		"country" : "CN",
		"city" : "Nanning",
		"province" : "Guangxi",
		"island" : null,
		"latitude" : 22.608267,
		"longitude" : 108.172442,
		"elevation" : 128,
		"gmtoffset" : 8
	},
	{
		"iatacode" : "NKG",
		"name" : "Lukou",
		"country" : "CN",
		"city" : "Nanjing",
		"province" : "Jiangsu",
		"island" : null,
		"latitude" : 31.742042,
		"longitude" : 118.862025,
		"elevation" : 15,
		"gmtoffset" : 8
	},
	{
		"iatacode" : "URC",
		"name" : "Diwopu",
		"country" : "CN",
		"city" : "Wulumuqi",
		"province" : "Xinjiang",
		"island" : null,
		"latitude" : 43.907106,
		"longitude" : 87.474244,
		"elevation" : 648,
		"gmtoffset" : 8
	},
	{
		"iatacode" : "NTG",
		"name" : "Nantong Airport",
		"country" : "CN",
		"city" : "Nantong",
		"province" : "Jiangsu",
		"island" : null,
		"latitude" : 32.0708,
		"longitude" : 120.976,
		"elevation" : null,
		"gmtoffset" : 8
	},
	{
		"iatacode" : "MIG",
		"name" : "Mianyang Airport",
		"country" : "CN",
		"city" : "Mianyang",
		"province" : "Sichuan",
		"island" : null,
		"latitude" : 31.4281,
		"longitude" : 104.741,
		"elevation" : null,
		"gmtoffset" : 8
	},
	{
		"iatacode" : "TYN",
		"name" : "Wusu",
		"country" : "CN",
		"city" : "Taiyuan",
		"province" : "Shanxi",
		"island" : null,
		"latitude" : 37.746897,
		"longitude" : 112.628428,
		"elevation" : 785,
		"gmtoffset" : 8
	},
	{
		"iatacode" : "CAN",
		"name" : "Baiyun Intl",
		"country" : "CN",
		"city" : "Guangzhou",
		"province" : "Guangdong",
		"island" : null,
		"latitude" : 23.392436,
		"longitude" : 113.298786,
		"elevation" : 15,
		"gmtoffset" : 8
	},
	{
		"iatacode" : "LZO",
		"name" : "Luzhou Airport",
		"country" : "CN",
		"city" : "Luzhou",
		"province" : "Sichuan",
		"island" : null,
		"latitude" : 28.8522,
		"longitude" : 105.393,
		"elevation" : null,
		"gmtoffset" : 8
	},
	{
		"iatacode" : "LYI",
		"name" : "Shubuling Airport",
		"country" : "CN",
		"city" : "Linyi",
		"province" : "Shandong",
		"island" : null,
		"latitude" : 35.0461,
		"longitude" : 118.412,
		"elevation" : null,
		"gmtoffset" : 8
	},
	{
		"iatacode" : "LXA",
		"name" : "Lhasa-Gonggar",
		"country" : "CN",
		"city" : "Lhasa",
		"province" : "Xizang",
		"island" : null,
		"latitude" : 29.297778,
		"longitude" : 90.911944,
		"elevation" : 4005,
		"gmtoffset" : 8
	},
	{
		"iatacode" : "WEH",
		"name" : "Weihai Airport",
		"country" : "CN",
		"city" : "Weihai",
		"province" : "Shandong",
		"island" : null,
		"latitude" : 37.1871,
		"longitude" : 122.229,
		"elevation" : 44,
		"gmtoffset" : 8
	},
	{
		"iatacode" : "MDG",
		"name" : "Mudanjiang",
		"country" : "CN",
		"city" : "Mudanjiang",
		"province" : "Heilongjiang",
		"island" : null,
		"latitude" : 44.523889,
		"longitude" : 129.568889,
		"elevation" : 269,
		"gmtoffset" : 8
	},
	{
		"iatacode" : "TNA",
		"name" : "Jinan",
		"country" : "CN",
		"city" : "Jinan",
		"province" : "Shandong",
		"island" : null,
		"latitude" : 36.857214,
		"longitude" : 117.215992,
		"elevation" : 23,
		"gmtoffset" : 8
	},
	{
		"iatacode" : "SYX",
		"name" : "Phoenix International",
		"country" : "CN",
		"city" : "Sanya",
		"province" : "Hainan",
		"island" : "Hainan",
		"latitude" : 18.302897,
		"longitude" : 109.412272,
		"elevation" : 28,
		"gmtoffset" : 8
	},
	{
		"iatacode" : "KWE",
		"name" : "Longdongbao",
		"country" : "CN",
		"city" : "Guiyang",
		"province" : "Guizhou",
		"island" : null,
		"latitude" : 26.538522,
		"longitude" : 106.800703,
		"elevation" : 1139,
		"gmtoffset" : 8
	},
	{
		"iatacode" : "SZX",
		"name" : "Baoan Intl",
		"country" : "CN",
		"city" : "Shenzhen",
		"province" : "Guangdong",
		"island" : null,
		"latitude" : 22.639258,
		"longitude" : 113.810664,
		"elevation" : 4,
		"gmtoffset" : 8
	},
	{
		"iatacode" : "CTU",
		"name" : "Shuangliu",
		"country" : "CN",
		"city" : "Chengdu",
		"province" : "Sichuan",
		"island" : null,
		"latitude" : 30.578528,
		"longitude" : 103.947086,
		"elevation" : 495,
		"gmtoffset" : 8
	},
	{
		"iatacode" : "YNJ",
		"name" : "Yanji Airport",
		"country" : "CN",
		"city" : "Yanji",
		"province" : "Jilin",
		"island" : null,
		"latitude" : 42.8828,
		"longitude" : 129.451258,
		"elevation" : 190,
		"gmtoffset" : 8
	},
	{
		"iatacode" : "YNT",
		"name" : "Laishan",
		"country" : "CN",
		"city" : "Yantai",
		"province" : "Shandong",
		"island" : null,
		"latitude" : 37.401667,
		"longitude" : 121.371667,
		"elevation" : 18,
		"gmtoffset" : 8
	},
	{
		"iatacode" : "YNZ",
		"name" : "Yancheng Airport",
		"country" : "CN",
		"city" : "Yancheng",
		"province" : "Jiangsu",
		"island" : null,
		"latitude" : 33.3856,
		"longitude" : 120.125,
		"elevation" : null,
		"gmtoffset" : 8
	},
	{
		"iatacode" : "YIH",
		"name" : "Yichang Airport",
		"country" : "CN",
		"city" : "Yichang",
		"province" : "Hubei",
		"island" : null,
		"latitude" : 30.671,
		"longitude" : 111.441,
		"elevation" : 205,
		"gmtoffset" : 8
	},
	{
		"iatacode" : "YBP",
		"name" : "Yibin",
		"country" : "CN",
		"city" : "Yibin",
		"province" : "Sichuan",
		"island" : null,
		"latitude" : 28.800278,
		"longitude" : 104.544444,
		"elevation" : 305,
		"gmtoffset" : 8
	},
	{
		"iatacode" : "XUZ",
		"name" : "Xuzhou Guanyin Airport",
		"country" : "CN",
		"city" : "Xuzhou",
		"province" : "Jiangsu",
		"island" : null,
		"latitude" : 34.16,
		"longitude" : 117.11,
		"elevation" : 43,
		"gmtoffset" : 8
	},
	{
		"iatacode" : "FOC",
		"name" : "Changle",
		"country" : "CN",
		"city" : "Fuzhou",
		"province" : "Fujian",
		"island" : null,
		"latitude" : 25.935064,
		"longitude" : 119.663272,
		"elevation" : 14,
		"gmtoffset" : 8
	},
	{
		"iatacode" : "XNN",
		"name" : "Xining Caojiabao Airport",
		"country" : "CN",
		"city" : "Xining",
		"province" : "Qinghai",
		"island" : null,
		"latitude" : 36.5275,
		"longitude" : 102.043,
		"elevation" : 2170,
		"gmtoffset" : 8
	},
	{
		"iatacode" : "XIY",
		"name" : "Xianyang",
		"country" : "CN",
		"city" : "Xi'an",
		"province" : "Shaanxi",
		"island" : null,
		"latitude" : 34.447119,
		"longitude" : 108.751592,
		"elevation" : 479,
		"gmtoffset" : 8
	},
	{
		"iatacode" : "HFE",
		"name" : "Luogang",
		"country" : "CN",
		"city" : "Hefei",
		"province" : "Anhui",
		"island" : null,
		"latitude" : 31.780019,
		"longitude" : 117.298436,
		"elevation" : 33,
		"gmtoffset" : 8
	},
	{
		"iatacode" : "MXZ",
		"name" : "Meixian Airport",
		"country" : "CN",
		"city" : "Meixian",
		"province" : "Guangdong",
		"island" : null,
		"latitude" : 24.35,
		"longitude" : 116.133,
		"elevation" : null,
		"gmtoffset" : 8
	},
	{
		"iatacode" : "NNY",
		"name" : "Nanyang Airport",
		"country" : "CN",
		"city" : "Nanyang",
		"province" : "Henan",
		"island" : null,
		"latitude" : 32.9808,
		"longitude" : 112.615,
		"elevation" : null,
		"gmtoffset" : 8
	},
	{
		"iatacode" : "NZH",
		"name" : "Manzhouli",
		"country" : "CN",
		"city" : "Manzhouli",
		"province" : "Nei Mongol",
		"island" : null,
		"latitude" : 49.57,
		"longitude" : 117.329444,
		"elevation" : null,
		"gmtoffset" : 8
	},
	{
		"iatacode" : "YUS",
		"name" : "Yushu Batang",
		"country" : "CN",
		"city" : "Yushu",
		"province" : "Qinghai",
		"island" : null,
		"latitude" : 32.825,
		"longitude" : 97.125,
		"elevation" : 3963,
		"gmtoffset" : 8
	},
	{
		"iatacode" : "AQG",
		"name" : "Anqing Airport",
		"country" : "CN",
		"city" : "Anqing",
		"province" : "Anhui",
		"island" : null,
		"latitude" : 30.5822,
		"longitude" : 117.0502,
		"elevation" : null,
		"gmtoffset" : 8
	},
	{
		"iatacode" : "CGD",
		"name" : "Changde Airport",
		"country" : "CN",
		"city" : "Changde",
		"province" : "Hunan",
		"island" : null,
		"latitude" : 28.9189,
		"longitude" : 111.64,
		"elevation" : null,
		"gmtoffset" : 8
	},
	{
		"iatacode" : "KHG",
		"name" : "Kashi",
		"country" : "CN",
		"city" : "Kashgar",
		"province" : "Xinjiang",
		"island" : null,
		"latitude" : 39.542922,
		"longitude" : 76.019956,
		"elevation" : 1381,
		"gmtoffset" : 8
	},
	{
		"iatacode" : "KOW",
		"name" : "Ganzhou Airport",
		"country" : "CN",
		"city" : "Ganzhou",
		"province" : "Jiangxi",
		"island" : null,
		"latitude" : 25.8258,
		"longitude" : 114.912,
		"elevation" : null,
		"gmtoffset" : 8
	},
	{
		"iatacode" : "AKU",
		"name" : "Aksu Airport",
		"country" : "CN",
		"city" : "Aksu",
		"province" : "Xinjiang",
		"island" : null,
		"latitude" : 41.2625,
		"longitude" : 80.2917,
		"elevation" : 1163,
		"gmtoffset" : 8
	},
	{
		"iatacode" : "KRL",
		"name" : "Korla Airport",
		"country" : "CN",
		"city" : "Korla",
		"province" : "Xinjiang",
		"island" : null,
		"latitude" : 41.6978,
		"longitude" : 86.1289,
		"elevation" : 927,
		"gmtoffset" : 8
	},
	{
		"iatacode" : "LYA",
		"name" : "Luoyang Airport",
		"country" : "CN",
		"city" : "Luoyang",
		"province" : "Henan",
		"island" : null,
		"latitude" : 34.41,
		"longitude" : 112.28,
		"elevation" : 64,
		"gmtoffset" : 8
	},
	{
		"iatacode" : "LYG",
		"name" : "Lianyungang Airport",
		"country" : "CN",
		"city" : "Lianyungang",
		"province" : "Jiangsu",
		"island" : null,
		"latitude" : 34.55,
		"longitude" : 119.25,
		"elevation" : null,
		"gmtoffset" : 8
	},
	{
		"iatacode" : "LZH",
		"name" : "Bailian Airport",
		"country" : "CN",
		"city" : "Liuzhou",
		"province" : "Guangxi",
		"island" : null,
		"latitude" : 24.2075,
		"longitude" : 109.391,
		"elevation" : 90,
		"gmtoffset" : 8
	},
	{
		"iatacode" : "WEF",
		"name" : "Weifang Airport",
		"country" : "CN",
		"city" : "Weifang",
		"province" : "Shandong",
		"island" : null,
		"latitude" : 36.6467,
		"longitude" : 119.119,
		"elevation" : null,
		"gmtoffset" : 8
	},
	{
		"iatacode" : "CHG",
		"name" : "Chaoyang Airport",
		"country" : "CN",
		"city" : "Chaoyang",
		"province" : "Liaoning",
		"island" : null,
		"latitude" : 41.5381,
		"longitude" : 120.435,
		"elevation" : 173,
		"gmtoffset" : 8
	},
	{
		"iatacode" : "CIH",
		"name" : "Changzhi Airport",
		"country" : "CN",
		"city" : "Changzhi",
		"province" : "Shanxi",
		"island" : null,
		"latitude" : 36.2475,
		"longitude" : 113.126,
		"elevation" : null,
		"gmtoffset" : 8
	},
	{
		"iatacode" : "CIF",
		"name" : "Chifeng Airport",
		"country" : "CN",
		"city" : "Chifeng",
		"province" : "Nei Mongol",
		"island" : null,
		"latitude" : 42.235,
		"longitude" : 118.908,
		"elevation" : null,
		"gmtoffset" : 8
	},
	{
		"iatacode" : "DOY",
		"name" : "Dongying Airport",
		"country" : "CN",
		"city" : "Dongying",
		"province" : "Shandong",
		"island" : null,
		"latitude" : 37.2716,
		"longitude" : 118.2819,
		"elevation" : 26,
		"gmtoffset" : 8
	},
	{
		"iatacode" : "NAO",
		"name" : "Nanchong Airport",
		"country" : "CN",
		"city" : "Nanchong",
		"province" : "Sichuan",
		"island" : null,
		"latitude" : 30.754,
		"longitude" : 106.062,
		"elevation" : null,
		"gmtoffset" : 8
	},
	{
		"iatacode" : "JIU",
		"name" : "Jiujiang Lushan Airport",
		"country" : "CN",
		"city" : "Jiujiang",
		"province" : "Jiangxi",
		"island" : null,
		"latitude" : 29.733,
		"longitude" : 115.983,
		"elevation" : null,
		"gmtoffset" : 8
	},
	{
		"iatacode" : "JDZ",
		"name" : "Jingdezhen Airport",
		"country" : "CN",
		"city" : "Jingdezhen",
		"province" : "Jiangxi",
		"island" : null,
		"latitude" : 29.3386,
		"longitude" : 117.176,
		"elevation" : 34,
		"gmtoffset" : 8
	},
	{
		"iatacode" : "ZHA",
		"name" : "Zhanjiang Airport",
		"country" : "CN",
		"city" : "Zhanjiang",
		"province" : "Guangdong",
		"island" : null,
		"latitude" : 21.2144,
		"longitude" : 110.358,
		"elevation" : 38,
		"gmtoffset" : 8
	},
	{
		"iatacode" : "WUA",
		"name" : "Wuhai",
		"country" : "CN",
		"city" : "Wuhai",
		"province" : "Nei Mongol",
		"island" : null,
		"latitude" : 39.794444,
		"longitude" : 106.799444,
		"elevation" : null,
		"gmtoffset" : 8
	},
	{
		"iatacode" : "GYS",
		"name" : "Guangyuan Airport",
		"country" : "CN",
		"city" : "Guangyuan",
		"province" : "Sichuan",
		"island" : null,
		"latitude" : 32.3911,
		"longitude" : 105.702,
		"elevation" : null,
		"gmtoffset" : 8
	},
	{
		"iatacode" : "HSN",
		"name" : "Zhoushan Airport",
		"country" : "CN",
		"city" : "Zhoushan",
		"province" : "Zhejiang",
		"island" : "Zhoushan",
		"latitude" : 29.9342,
		"longitude" : 122.362,
		"elevation" : 9,
		"gmtoffset" : 8
	},
	{
		"iatacode" : "JNZ",
		"name" : "Jinzhou Airport",
		"country" : "CN",
		"city" : "Jinzhou",
		"province" : "Liaoning",
		"island" : null,
		"latitude" : 41.1014,
		"longitude" : 121.062,
		"elevation" : null,
		"gmtoffset" : 8
	},
	{
		"iatacode" : "JNG",
		"name" : "Jining Airport",
		"country" : "CN",
		"city" : "Jining",
		"province" : "Shandong",
		"island" : null,
		"latitude" : 35.417,
		"longitude" : 116.533,
		"elevation" : 470,
		"gmtoffset" : 8
	},
	{
		"iatacode" : "JUZ",
		"name" : "Quzhou Airport",
		"country" : "CN",
		"city" : "Quzhou",
		"province" : "Hebei",
		"island" : null,
		"latitude" : 28.9658,
		"longitude" : 118.899,
		"elevation" : null,
		"gmtoffset" : 8
	},
	{
		"iatacode" : "HLH",
		"name" : "Ulanhot Airport",
		"country" : "CN",
		"city" : "Ulanhot",
		"province" : "Nei Mongol",
		"island" : null,
		"latitude" : 46.083,
		"longitude" : 122.017,
		"elevation" : null,
		"gmtoffset" : 8
	},
	{
		"iatacode" : "HMI",
		"name" : "Hami Airport",
		"country" : "CN",
		"city" : "Hami",
		"province" : "Xinjiang",
		"island" : null,
		"latitude" : 42.8414,
		"longitude" : 93.6692,
		"elevation" : 824,
		"gmtoffset" : 8
	},
	{
		"iatacode" : "YIN",
		"name" : "Yining Airport",
		"country" : "CN",
		"city" : "Yining",
		"province" : "Xinjiang",
		"island" : null,
		"latitude" : 43.9558,
		"longitude" : 81.3303,
		"elevation" : 666,
		"gmtoffset" : 8
	},
	{
		"iatacode" : "KWL",
		"name" : "Liangjiang",
		"country" : "CN",
		"city" : "Guilin",
		"province" : "Guangxi",
		"island" : null,
		"latitude" : 25.218106,
		"longitude" : 110.039197,
		"elevation" : 174,
		"gmtoffset" : 8
	},
	{
		"iatacode" : "CZX",
		"name" : "Changzhou",
		"country" : "CN",
		"city" : "Changzhou",
		"province" : "Jiangsu",
		"island" : null,
		"latitude" : 31.941667,
		"longitude" : 119.711667,
		"elevation" : 12,
		"gmtoffset" : 8
	},
	{
		"iatacode" : "SWA",
		"name" : "Jieyang Chaoshan International Airport",
		"country" : "CN",
		"city" : "Shantou",
		"province" : "Guangdong",
		"island" : null,
		"latitude" : 23.55,
		"longitude" : 116.5,
		"elevation" : null,
		"gmtoffset" : 8
	},
	{
		"iatacode" : "DAT",
		"name" : "Datong Airport",
		"country" : "CN",
		"city" : "Datong",
		"province" : "Shanxi",
		"island" : null,
		"latitude" : 40.0603,
		"longitude" : 113.482,
		"elevation" : 1049,
		"gmtoffset" : 8
	},
	{
		"iatacode" : "TAO",
		"name" : "Liuting",
		"country" : "CN",
		"city" : "Qingdao",
		"province" : "Shandong",
		"island" : null,
		"latitude" : 36.266108,
		"longitude" : 120.374436,
		"elevation" : 10,
		"gmtoffset" : 8
	},
	{
		"iatacode" : "DDG",
		"name" : "Dandong",
		"country" : "CN",
		"city" : "Dandong",
		"province" : "Liaoning",
		"island" : null,
		"latitude" : 40.0255,
		"longitude" : 124.2866,
		"elevation" : 9,
		"gmtoffset" : 8
	},
	{
		"iatacode" : "SHE",
		"name" : "Shenyang Taoxian International Airport",
		"country" : "CN",
		"city" : "Shenyang",
		"province" : "Liaoning",
		"island" : null,
		"latitude" : 41.3824,
		"longitude" : 123.2901,
		"elevation" : 60,
		"gmtoffset" : 8
	},
	{
		"iatacode" : "SHA",
		"name" : "Hongqiao Intl",
		"country" : "CN",
		"city" : "Shanghai",
		"province" : "Shanghai",
		"island" : null,
		"latitude" : 31.197875,
		"longitude" : 121.336319,
		"elevation" : 3,
		"gmtoffset" : 8
	},
	{
		"iatacode" : "XCH",
		"name" : "Christmas Island",
		"country" : "XMAS",
		"city" : "Flying Fish Cove",
		"province" : "Christmas Island",
		"island" : "Christmas Island",
		"latitude" : -10.450556,
		"longitude" : 105.690278,
		"elevation" : 279,
		"gmtoffset" : 7
	},
	{
		"iatacode" : "CCK",
		"name" : "Cocos Keeling Island Airport",
		"country" : "COCO",
		"city" : "West Island",
		"province" : "Cocos Islands",
		"island" : "Pulau Panjang",
		"latitude" : -12.1883,
		"longitude" : 96.8339,
		"elevation" : 3,
		"gmtoffset" : 6.5
	},
	{
		"iatacode" : "BOG",
		"name" : "Eldorado Intl",
		"country" : "CO",
		"city" : "Bogotá",
		"province" : "Santa Fe de Bogotá",
		"island" : null,
		"latitude" : 4.701594,
		"longitude" : -74.146947,
		"elevation" : 2549,
		"gmtoffset" : -5
	},
	{
		"iatacode" : "IBE",
		"name" : "Perales",
		"country" : "CO",
		"city" : "Ibagué",
		"province" : "Tolima",
		"island" : null,
		"latitude" : 4.421608,
		"longitude" : -75.1333,
		"elevation" : 914,
		"gmtoffset" : -5
	},
	{
		"iatacode" : "FLA",
		"name" : "Gustavo Artunduaga Paredes",
		"country" : "CO",
		"city" : "Florencia",
		"province" : "Caquetá",
		"island" : null,
		"latitude" : 1.589189,
		"longitude" : -75.564372,
		"elevation" : 245,
		"gmtoffset" : -5
	},
	{
		"iatacode" : "AXM",
		"name" : "El Eden",
		"country" : "CO",
		"city" : "Armenia",
		"province" : "Quindío",
		"island" : null,
		"latitude" : 4.452775,
		"longitude" : -75.766447,
		"elevation" : 1216,
		"gmtoffset" : -5
	},
	{
		"iatacode" : "MZL",
		"name" : "La Nubia",
		"country" : "CO",
		"city" : "Manizales",
		"province" : "Caldas",
		"island" : null,
		"latitude" : 5.029597,
		"longitude" : -75.464708,
		"elevation" : 2095,
		"gmtoffset" : -5
	},
	{
		"iatacode" : "EJA",
		"name" : "Yariguies",
		"country" : "CO",
		"city" : "Barrancabermeja",
		"province" : "Santander",
		"island" : null,
		"latitude" : 7.024331,
		"longitude" : -73.8068,
		"elevation" : 126,
		"gmtoffset" : -5
	},
	{
		"iatacode" : "TCO",
		"name" : "La Florida",
		"country" : "CO",
		"city" : "San Andres de Tumaco",
		"province" : "Nariño",
		"island" : null,
		"latitude" : 1.814417,
		"longitude" : -78.749228,
		"elevation" : 2,
		"gmtoffset" : -5
	},
	{
		"iatacode" : "CLO",
		"name" : "Alfonso Bonilla Aragon Intl",
		"country" : "CO",
		"city" : "Cali",
		"province" : "Valle de Cauca",
		"island" : null,
		"latitude" : 3.543222,
		"longitude" : -76.381583,
		"elevation" : 964,
		"gmtoffset" : -5
	},
	{
		"iatacode" : "CTG",
		"name" : "Rafael Nunez",
		"country" : "CO",
		"city" : "Cartagena",
		"province" : "Bolívar",
		"island" : null,
		"latitude" : 10.442381,
		"longitude" : -75.512961,
		"elevation" : 1,
		"gmtoffset" : -5
	},
	{
		"iatacode" : "SMR",
		"name" : "Simon Bolivar",
		"country" : "CO",
		"city" : "Santa Marta",
		"province" : "Magdalena",
		"island" : null,
		"latitude" : 11.11965,
		"longitude" : -74.230647,
		"elevation" : 7,
		"gmtoffset" : -5
	},
	{
		"iatacode" : "BAQ",
		"name" : "Ernesto Cortissoz",
		"country" : "CO",
		"city" : "Barranquilla",
		"province" : "Atlántico",
		"island" : null,
		"latitude" : 10.889589,
		"longitude" : -74.780819,
		"elevation" : 30,
		"gmtoffset" : -5
	},
	{
		"iatacode" : "PEI",
		"name" : "Matecana",
		"country" : "CO",
		"city" : "Pereira",
		"province" : "Risaralda",
		"island" : null,
		"latitude" : 4.812675,
		"longitude" : -75.739519,
		"elevation" : 1346,
		"gmtoffset" : -5
	},
	{
		"iatacode" : "CUC",
		"name" : "Camilo Daza",
		"country" : "CO",
		"city" : "Cúcuta",
		"province" : "Norte de Santander",
		"island" : null,
		"latitude" : 7.927567,
		"longitude" : -72.511547,
		"elevation" : 334,
		"gmtoffset" : -5
	},
	{
		"iatacode" : "BGA",
		"name" : "Palonegro",
		"country" : "CO",
		"city" : "Bucaramanga",
		"province" : "Santander",
		"island" : null,
		"latitude" : 7.1265,
		"longitude" : -73.184778,
		"elevation" : 1188,
		"gmtoffset" : -5
	},
	{
		"iatacode" : "ADZ",
		"name" : "Gustavo Rojas Pinilla",
		"country" : "CO",
		"city" : "San Andres",
		"province" : "San Andrés, Providencia y Santa Catalina",
		"island" : "San Andres",
		"latitude" : 12.583594,
		"longitude" : -81.711192,
		"elevation" : 6,
		"gmtoffset" : -5
	},
	{
		"iatacode" : "EOH",
		"name" : "Olaya Herrera",
		"country" : "CO",
		"city" : "Medellín",
		"province" : "Antioquia",
		"island" : null,
		"latitude" : 6.219958,
		"longitude" : -75.590519,
		"elevation" : 1506,
		"gmtoffset" : -5
	},
	{
		"iatacode" : "HAH",
		"name" : "Prince Said Ibrahim",
		"country" : "COM",
		"city" : "Moroni",
		"province" : "Comoros",
		"island" : "Grand Comoro",
		"latitude" : -11.533661,
		"longitude" : 43.27185,
		"elevation" : 28,
		"gmtoffset" : 3
	},
	{
		"iatacode" : "PNR",
		"name" : "Pointe Noire",
		"country" : "RCB",
		"city" : "Pointe-Noire",
		"province" : "Pointe-Noire",
		"island" : null,
		"latitude" : -4.816028,
		"longitude" : 11.886597,
		"elevation" : 17,
		"gmtoffset" : 1
	},
	{
		"iatacode" : "BZV",
		"name" : "Maya Maya",
		"country" : "RCB",
		"city" : "Brazzaville",
		"province" : "Brazzaville",
		"island" : null,
		"latitude" : -4.2517,
		"longitude" : 15.253031,
		"elevation" : 320,
		"gmtoffset" : 1
	},
	{
		"iatacode" : "CUR",
		"name" : "Hato",
		"country" : "CUR",
		"city" : "Willemstad",
		"province" : "Curacao",
		"island" : "Curacao",
		"latitude" : 12.188853,
		"longitude" : -68.959803,
		"elevation" : 9,
		"gmtoffset" : -4
	},
	{
		"iatacode" : "FIH",
		"name" : "Ndjili Intl",
		"country" : "ZRE",
		"city" : "Kinshasa",
		"province" : "Kinshasa",
		"island" : null,
		"latitude" : -4.38575,
		"longitude" : 15.444569,
		"elevation" : 313,
		"gmtoffset" : 1
	},
	{
		"iatacode" : "MJM",
		"name" : "Mbuji Mayi",
		"country" : "ZRE",
		"city" : "Mbuji-Mayi",
		"province" : "Kasai-Oriental",
		"island" : null,
		"latitude" : -6.121236,
		"longitude" : 23.569008,
		"elevation" : 677,
		"gmtoffset" : 2
	},
	{
		"iatacode" : "FBM",
		"name" : "Lubumbashi Intl",
		"country" : "ZRE",
		"city" : "Lubumbashi",
		"province" : "Katanga",
		"island" : null,
		"latitude" : -11.591333,
		"longitude" : 27.530889,
		"elevation" : 1309,
		"gmtoffset" : 2
	},
	{
		"iatacode" : "RAR",
		"name" : "Rarotonga Intl",
		"country" : "COOK",
		"city" : "Avarua",
		"province" : "Cook Islands",
		"island" : "Rarotonga",
		"latitude" : -21.202739,
		"longitude" : -159.805556,
		"elevation" : 6,
		"gmtoffset" : -10
	},
	{
		"iatacode" : "SYQ",
		"name" : "Tobias Bolanos International Airport",
		"country" : "CR",
		"city" : "San José",
		"province" : "San José",
		"island" : null,
		"latitude" : 9.957053,
		"longitude" : -84.139797,
		"elevation" : 1002,
		"gmtoffset" : -6
	},
	{
		"iatacode" : "LIR",
		"name" : "Daniel Oduber Quiros Intl",
		"country" : "CR",
		"city" : "Liberia",
		"province" : "Guanacaste",
		"island" : null,
		"latitude" : 10.593289,
		"longitude" : -85.544408,
		"elevation" : 82,
		"gmtoffset" : -6
	},
	{
		"iatacode" : "SJO",
		"name" : "Juan Santamaria Intl",
		"country" : "CR",
		"city" : "San José",
		"province" : "San José",
		"island" : null,
		"latitude" : 9.993861,
		"longitude" : -84.208806,
		"elevation" : 921,
		"gmtoffset" : -6
	},
	{
		"iatacode" : "ABJ",
		"name" : "Abidjan Felix Houphouet Boigny Intl",
		"country" : "CI",
		"city" : "Abidjan",
		"province" : "Lagunes",
		"island" : null,
		"latitude" : 5.261386,
		"longitude" : -3.926294,
		"elevation" : 6,
		"gmtoffset" : 0
	},
	{
		"iatacode" : "SPU",
		"name" : "Split",
		"country" : "HR",
		"city" : "Split",
		"province" : "Croatia",
		"island" : null,
		"latitude" : 43.538944,
		"longitude" : 16.297964,
		"elevation" : 24,
		"gmtoffset" : 1
	},
	{
		"iatacode" : "ZAG",
		"name" : "Zagreb",
		"country" : "HR",
		"city" : "Zagreb",
		"province" : "Croatia",
		"island" : null,
		"latitude" : 45.742931,
		"longitude" : 16.068778,
		"elevation" : 108,
		"gmtoffset" : 1
	},
	{
		"iatacode" : "RJK",
		"name" : "Rijeka",
		"country" : "HR",
		"city" : "Rijeka",
		"province" : "Croatia",
		"island" : null,
		"latitude" : 45.216889,
		"longitude" : 14.570267,
		"elevation" : 85,
		"gmtoffset" : 1
	},
	{
		"iatacode" : "ZAD",
		"name" : "Zadar",
		"country" : "HR",
		"city" : "Zadar",
		"province" : "Croatia",
		"island" : null,
		"latitude" : 44.108269,
		"longitude" : 15.346697,
		"elevation" : 88,
		"gmtoffset" : 1
	},
	{
		"iatacode" : "SCU",
		"name" : "Antonio Maceo Intl",
		"country" : "C",
		"city" : "Santiago de Cuba",
		"province" : "Santiago de Cuba",
		"island" : "Cuba",
		"latitude" : 19.969769,
		"longitude" : -75.835414,
		"elevation" : 76,
		"gmtoffset" : -5
	},
	{
		"iatacode" : "CMW",
		"name" : "Ignacio Agramonte Intl",
		"country" : "C",
		"city" : "Camagüey",
		"province" : "Camagüey",
		"island" : "Cuba",
		"latitude" : 21.420428,
		"longitude" : -77.847433,
		"elevation" : 126,
		"gmtoffset" : -5
	},
	{
		"iatacode" : "HOG",
		"name" : "Frank Pais Intl",
		"country" : "C",
		"city" : "Holguín",
		"province" : "Holguín",
		"island" : "Cuba",
		"latitude" : 20.785589,
		"longitude" : -76.315108,
		"elevation" : 110,
		"gmtoffset" : -5
	},
	{
		"iatacode" : "GER",
		"name" : "Rafael Cabrera",
		"country" : "C",
		"city" : "Nueva Gerona",
		"province" : "Isla de la Juventud",
		"island" : "Cuba",
		"latitude" : 21.834689,
		"longitude" : -82.783819,
		"elevation" : 24,
		"gmtoffset" : -5
	},
	{
		"iatacode" : "HAV",
		"name" : "Jose Marti Intl",
		"country" : "C",
		"city" : "La Habana",
		"province" : "La Habana",
		"island" : "Cuba",
		"latitude" : 22.989153,
		"longitude" : -82.409086,
		"elevation" : 64,
		"gmtoffset" : -5
	},
	{
		"iatacode" : "LCA",
		"name" : "Larnaca",
		"country" : "CY",
		"city" : "Larnaka",
		"province" : "Cyprus",
		"island" : "Cyprus",
		"latitude" : 34.875117,
		"longitude" : 33.62485,
		"elevation" : 2,
		"gmtoffset" : 2
	},
	{
		"iatacode" : "ECN",
		"name" : "Ercan International Airport",
		"country" : "CY",
		"city" : "Lefkosia",
		"province" : "Cyprus",
		"island" : "Cyprus",
		"latitude" : 35.1547,
		"longitude" : 33.4961,
		"elevation" : 123,
		"gmtoffset" : 2
	},
	{
		"iatacode" : "KLV",
		"name" : "Karlovy Vary",
		"country" : "CZ",
		"city" : "Karlovy Vary",
		"province" : "Karlovarský",
		"island" : null,
		"latitude" : 50.202978,
		"longitude" : 12.914983,
		"elevation" : 606,
		"gmtoffset" : 1
	},
	{
		"iatacode" : "PED",
		"name" : "Pardubice",
		"country" : "CZ",
		"city" : "Pardubice",
		"province" : "Pardubický",
		"island" : null,
		"latitude" : 50.013419,
		"longitude" : 15.738647,
		"elevation" : 226,
		"gmtoffset" : 1
	},
	{
		"iatacode" : "PRG",
		"name" : "Ruzyne",
		"country" : "CZ",
		"city" : "Praha",
		"province" : "Praha",
		"island" : null,
		"latitude" : 50.100833,
		"longitude" : 14.26,
		"elevation" : 380,
		"gmtoffset" : 1
	},
	{
		"iatacode" : "OSR",
		"name" : "Mosnov",
		"country" : "CZ",
		"city" : "Ostrava",
		"province" : "Moravskoslezský",
		"island" : null,
		"latitude" : 49.696292,
		"longitude" : 18.111053,
		"elevation" : 257,
		"gmtoffset" : 1
	},
	{
		"iatacode" : "BRQ",
		"name" : "Brno-Tuřany",
		"country" : "CZ",
		"city" : "Brno",
		"province" : "Jihomoravský",
		"island" : null,
		"latitude" : 49.1514,
		"longitude" : 16.6944,
		"elevation" : 235,
		"gmtoffset" : 1
	},
	{
		"iatacode" : "CPH",
		"name" : "Kastrup",
		"country" : "DK",
		"city" : "København",
		"province" : "Hovedstaden",
		"island" : "Seeland",
		"latitude" : 55.617917,
		"longitude" : 12.655972,
		"elevation" : 5,
		"gmtoffset" : 1
	},
	{
		"iatacode" : "AAL",
		"name" : "Aalborg",
		"country" : "DK",
		"city" : "Aalborg",
		"province" : "Nordjylland",
		"island" : null,
		"latitude" : 57.092789,
		"longitude" : 9.849164,
		"elevation" : 3,
		"gmtoffset" : 1
	},
	{
		"iatacode" : "AAR",
		"name" : "Aarhus",
		"country" : "DK",
		"city" : "Århus",
		"province" : "Midtjylland",
		"island" : null,
		"latitude" : 56.300017,
		"longitude" : 10.619008,
		"elevation" : 25,
		"gmtoffset" : 1
	},
	{
		"iatacode" : "RNN",
		"name" : "Bornholm Ronne",
		"country" : "DK",
		"city" : null,
		"province" : null,
		"island" : "Bornholm",
		"latitude" : 55.063267,
		"longitude" : 14.759558,
		"elevation" : 16,
		"gmtoffset" : 1
	},
	{
		"iatacode" : "EBJ",
		"name" : "Esbjerg",
		"country" : "DK",
		"city" : "Esbjerg",
		"province" : "Syddanmark",
		"island" : null,
		"latitude" : 55.525942,
		"longitude" : 8.553403,
		"elevation" : 30,
		"gmtoffset" : 1
	},
	{
		"iatacode" : "JIB",
		"name" : "Ambouli International Airport",
		"country" : "DJI",
		"city" : "Djibouti",
		"province" : "Djibouti",
		"island" : null,
		"latitude" : 11.5472,
		"longitude" : 43.1594,
		"elevation" : 15,
		"gmtoffset" : 3
	},
	{
		"iatacode" : "DOM",
		"name" : "Melville Hall",
		"country" : "WD",
		"city" : "Roseau",
		"province" : "Dominica",
		"island" : "Dominica",
		"latitude" : 15.547028,
		"longitude" : -61.3,
		"elevation" : 22,
		"gmtoffset" : -4
	},
	{
		"iatacode" : "SDQ",
		"name" : "Las Americas Intl",
		"country" : "DOM",
		"city" : "Santo Domingo",
		"province" : "Dominican Republic",
		"island" : "Hispaniola",
		"latitude" : 18.429664,
		"longitude" : -69.668925,
		"elevation" : 18,
		"gmtoffset" : -4
	},
	{
		"iatacode" : "STI",
		"name" : "Cibao Intl",
		"country" : "DOM",
		"city" : "Santiago",
		"province" : "Dominican Republic",
		"island" : "Hispaniola",
		"latitude" : 19.406092,
		"longitude" : -70.604689,
		"elevation" : 172,
		"gmtoffset" : -4
	},
	{
		"iatacode" : "DIL",
		"name" : "Presidente Nicolau Lobato Intl",
		"country" : "TL",
		"city" : "Dili",
		"province" : "Timor-Leste",
		"island" : "Timor",
		"latitude" : -8.546553,
		"longitude" : 125.524719,
		"elevation" : 8,
		"gmtoffset" : 8
	},
	{
		"iatacode" : "GPS",
		"name" : "Seymour",
		"country" : "EC",
		"city" : null,
		"province" : null,
		"island" : "Isabela",
		"latitude" : -0.453758,
		"longitude" : -90.265914,
		"elevation" : 63,
		"gmtoffset" : -6
	},
	{
		"iatacode" : "GYE",
		"name" : "Jose Joaquin De Olmedo Intl",
		"country" : "EC",
		"city" : "Guayaquil",
		"province" : "Ecuador",
		"island" : null,
		"latitude" : -2.157419,
		"longitude" : -79.883558,
		"elevation" : 6,
		"gmtoffset" : -5
	},
	{
		"iatacode" : "UIO",
		"name" : "Mariscal Sucre Intl",
		"country" : "EC",
		"city" : "Quito",
		"province" : "Ecuador",
		"island" : null,
		"latitude" : -0.141144,
		"longitude" : -78.488214,
		"elevation" : 2813,
		"gmtoffset" : -5
	},
	{
		"iatacode" : "CUE",
		"name" : "Mariscal Lamar",
		"country" : "EC",
		"city" : "Cuenca",
		"province" : "Ecuador",
		"island" : null,
		"latitude" : -2.889467,
		"longitude" : -78.984397,
		"elevation" : 2532,
		"gmtoffset" : -5
	},
	{
		"iatacode" : "HRG",
		"name" : "Hurghada Intl",
		"country" : "ET",
		"city" : "Hurghada",
		"province" : "Egypt",
		"island" : null,
		"latitude" : 27.178317,
		"longitude" : 33.799436,
		"elevation" : 16,
		"gmtoffset" : 2
	},
	{
		"iatacode" : "ASW",
		"name" : "Aswan Intl",
		"country" : "ET",
		"city" : "Aswan",
		"province" : "Egypt",
		"island" : null,
		"latitude" : 23.964356,
		"longitude" : 32.819975,
		"elevation" : 202,
		"gmtoffset" : 2
	},
	{
		"iatacode" : "ATZ",
		"name" : "Asyut International Airport",
		"country" : "ET",
		"city" : "Asyut",
		"province" : "Egypt",
		"island" : null,
		"latitude" : 27.046508,
		"longitude" : 31.011983,
		"elevation" : 235,
		"gmtoffset" : 2
	},
	{
		"iatacode" : "HBE",
		"name" : "Borg El Arab Intl",
		"country" : "ET",
		"city" : "Al Iskandariyah",
		"province" : "Egypt",
		"island" : null,
		"latitude" : 30.917669,
		"longitude" : 29.696408,
		"elevation" : 54,
		"gmtoffset" : 2
	},
	{
		"iatacode" : "CAI",
		"name" : "Cairo Intl",
		"country" : "ET",
		"city" : "Al Qahirah",
		"province" : "Egypt",
		"island" : null,
		"latitude" : 30.121944,
		"longitude" : 31.405556,
		"elevation" : 116,
		"gmtoffset" : 2
	},
	{
		"iatacode" : "LXR",
		"name" : "Luxor Intl",
		"country" : "ET",
		"city" : "Al Uqsur",
		"province" : "Egypt",
		"island" : null,
		"latitude" : 25.671028,
		"longitude" : 32.706583,
		"elevation" : 90,
		"gmtoffset" : 2
	},
	{
		"iatacode" : "ALY",
		"name" : "Alexandria Intl",
		"country" : "ET",
		"city" : "Al Iskandariyah",
		"province" : "Egypt",
		"island" : null,
		"latitude" : 31.183903,
		"longitude" : 29.948889,
		"elevation" : -2,
		"gmtoffset" : 2
	},
	{
		"iatacode" : "SAL",
		"name" : "El Salvador Intl",
		"country" : "ES",
		"city" : "San Salvador",
		"province" : "El Salvador",
		"island" : null,
		"latitude" : 13.440947,
		"longitude" : -89.055728,
		"elevation" : 31,
		"gmtoffset" : -6
	},
	{
		"iatacode" : "SSG",
		"name" : "Malabo",
		"country" : "GQ",
		"city" : "Malabo",
		"province" : "Insular",
		"island" : "Bioko",
		"latitude" : 3.755267,
		"longitude" : 8.708717,
		"elevation" : 23,
		"gmtoffset" : 1
	},
	{
		"iatacode" : "BSG",
		"name" : "Bata",
		"country" : "GQ",
		"city" : "Bata",
		"province" : "Continental",
		"island" : null,
		"latitude" : 1.9056,
		"longitude" : 9.8056,
		"elevation" : 11,
		"gmtoffset" : 1
	},
	{
		"iatacode" : "ASM",
		"name" : "Asmara Intl",
		"country" : "ER",
		"city" : "Asmara",
		"province" : "Eritrea",
		"island" : null,
		"latitude" : 15.291853,
		"longitude" : 38.910667,
		"elevation" : 2336,
		"gmtoffset" : 3
	},
	{
		"iatacode" : "TLL",
		"name" : "Tallinn-Ulemiste International",
		"country" : "EW",
		"city" : "Tallinn",
		"province" : "Estonia",
		"island" : null,
		"latitude" : 59.413317,
		"longitude" : 24.832844,
		"elevation" : 40,
		"gmtoffset" : 2
	},
	{
		"iatacode" : "GDQ",
		"name" : "Gondar",
		"country" : "ETH",
		"city" : "Gondar",
		"province" : "Amhara",
		"island" : null,
		"latitude" : 12.5199,
		"longitude" : 37.434047,
		"elevation" : 1994,
		"gmtoffset" : 3
	},
	{
		"iatacode" : "DIR",
		"name" : "Dire Dawa Intl",
		"country" : "ETH",
		"city" : "Dire Dawa",
		"province" : "Dire Dawa",
		"island" : null,
		"latitude" : 9.6247,
		"longitude" : 41.854203,
		"elevation" : 1167,
		"gmtoffset" : 3
	},
	{
		"iatacode" : "ADD",
		"name" : "Bole Intl",
		"country" : "ETH",
		"city" : "Addis Ababa",
		"province" : "Addis Ababa",
		"island" : null,
		"latitude" : 8.977889,
		"longitude" : 38.799319,
		"elevation" : 2334,
		"gmtoffset" : 3
	},
	{
		"iatacode" : "GMB",
		"name" : "Gambella",
		"country" : "ETH",
		"city" : "Gambella",
		"province" : "Gambella",
		"island" : null,
		"latitude" : 8.128764,
		"longitude" : 34.563131,
		"elevation" : 540,
		"gmtoffset" : 3
	},
	{
		"iatacode" : "PSY",
		"name" : "Port Stanley",
		"country" : "FALK",
		"city" : "Stanley",
		"province" : "Falkland Islands",
		"island" : "East Falkland",
		"latitude" : -51.6857,
		"longitude" : -57.7776,
		"elevation" : 23,
		"gmtoffset" : -3
	},
	{
		"iatacode" : "FAE",
		"name" : "Vagar",
		"country" : "FARX",
		"city" : "Tórshavn",
		"province" : "Faroe Islands",
		"island" : "Streymoy",
		"latitude" : 62.063628,
		"longitude" : -7.277219,
		"elevation" : 85,
		"gmtoffset" : 0
	},
	{
		"iatacode" : "SUV",
		"name" : "Nausori Intl",
		"country" : "FJI",
		"city" : "Suva",
		"province" : "Fiji",
		"island" : "Viti Levu",
		"latitude" : -18.043267,
		"longitude" : 178.559228,
		"elevation" : 5,
		"gmtoffset" : 12
	},
	{
		"iatacode" : "MHQ",
		"name" : "Mariehamn",
		"country" : "SF",
		"city" : "Mariehamn",
		"province" : "Aland",
		"island" : null,
		"latitude" : 60.122203,
		"longitude" : 19.898156,
		"elevation" : 5,
		"gmtoffset" : 1
	},
	{
		"iatacode" : "OUL",
		"name" : "Oulu",
		"country" : "SF",
		"city" : "Oulu",
		"province" : "Oulu",
		"island" : null,
		"latitude" : 64.930061,
		"longitude" : 25.354564,
		"elevation" : 14,
		"gmtoffset" : 2
	},
	{
		"iatacode" : "HEL",
		"name" : "Helsinki Vantaa",
		"country" : "SF",
		"city" : "Helsinki",
		"province" : "Uusimaa",
		"island" : null,
		"latitude" : 60.317222,
		"longitude" : 24.963333,
		"elevation" : 55,
		"gmtoffset" : 2
	},
	{
		"iatacode" : "POR",
		"name" : "Pori",
		"country" : "SF",
		"city" : "Pori",
		"province" : "Turku-Pori",
		"island" : null,
		"latitude" : 61.461686,
		"longitude" : 21.799983,
		"elevation" : 13,
		"gmtoffset" : 2
	},
	{
		"iatacode" : "JOE",
		"name" : "Joensuu",
		"country" : "SF",
		"city" : "Joensuu",
		"province" : "Pohjols-Karjala",
		"island" : null,
		"latitude" : 62.662906,
		"longitude" : 29.60755,
		"elevation" : 121,
		"gmtoffset" : 2
	},
	{
		"iatacode" : "RVN",
		"name" : "Rovaniemi",
		"country" : "SF",
		"city" : "Rovaniemi",
		"province" : "Lappia",
		"island" : null,
		"latitude" : 66.564822,
		"longitude" : 25.830411,
		"elevation" : 196,
		"gmtoffset" : 2
	},
	{
		"iatacode" : "JYV",
		"name" : "Jyvaskyla",
		"country" : "SF",
		"city" : "Jyväskylä",
		"province" : "Suomi",
		"island" : null,
		"latitude" : 62.399453,
		"longitude" : 25.678253,
		"elevation" : 140,
		"gmtoffset" : 2
	},
	{
		"iatacode" : "KUO",
		"name" : "Kuopio",
		"country" : "SF",
		"city" : "Kuopio",
		"province" : "Kuopio",
		"island" : null,
		"latitude" : 63.00715,
		"longitude" : 27.797756,
		"elevation" : 98,
		"gmtoffset" : 2
	},
	{
		"iatacode" : "LPP",
		"name" : "Lappeenranta",
		"country" : "SF",
		"city" : "Lappeenranta",
		"province" : "Kymi",
		"island" : null,
		"latitude" : 61.044553,
		"longitude" : 28.144397,
		"elevation" : 106,
		"gmtoffset" : 2
	},
	{
		"iatacode" : "TMP",
		"name" : "Tampere Pirkkala",
		"country" : "SF",
		"city" : "Tampere",
		"province" : "Haeme",
		"island" : null,
		"latitude" : 61.414147,
		"longitude" : 23.604392,
		"elevation" : 119,
		"gmtoffset" : 2
	},
	{
		"iatacode" : "TKU",
		"name" : "Turku",
		"country" : "SF",
		"city" : "Turku",
		"province" : "Turku-Pori",
		"island" : null,
		"latitude" : 60.514142,
		"longitude" : 22.262808,
		"elevation" : 49,
		"gmtoffset" : 2
	},
	{
		"iatacode" : "VAA",
		"name" : "Vaasa",
		"country" : "SF",
		"city" : "Vaasa",
		"province" : "Vaasa",
		"island" : null,
		"latitude" : 63.05065,
		"longitude" : 21.762175,
		"elevation" : 6,
		"gmtoffset" : 2
	},
	{
		"iatacode" : "MLH",
		"name" : "Basel Mulhouse",
		"country" : "F",
		"city" : "Mulhouse",
		"province" : "Alsace",
		"island" : null,
		"latitude" : 47.589583,
		"longitude" : 7.529914,
		"elevation" : 270,
		"gmtoffset" : 1
	},
	{
		"iatacode" : "MRS",
		"name" : "Provence",
		"country" : "F",
		"city" : "Marseille",
		"province" : "Provence-Alpes-Côte d'Azur",
		"island" : null,
		"latitude" : 43.435555,
		"longitude" : 5.213611,
		"elevation" : 23,
		"gmtoffset" : 1
	},
	{
		"iatacode" : "MPL",
		"name" : "Mediterranee",
		"country" : "F",
		"city" : "Montpellier",
		"province" : "Languedoc-Roussillon",
		"island" : null,
		"latitude" : 43.576194,
		"longitude" : 3.963014,
		"elevation" : 5,
		"gmtoffset" : 1
	},
	{
		"iatacode" : "CFR",
		"name" : "Carpiquet",
		"country" : "F",
		"city" : "Caen",
		"province" : "Basse Normandie",
		"island" : null,
		"latitude" : 49.173333,
		"longitude" : -0.45,
		"elevation" : 78,
		"gmtoffset" : 1
	},
	{
		"iatacode" : "ANE",
		"name" : "Angers-Loire Airport",
		"country" : "F",
		"city" : "Angers",
		"province" : "Pays de la Loire",
		"island" : null,
		"latitude" : 47.5603,
		"longitude" : -0.312222,
		"elevation" : 59,
		"gmtoffset" : 1
	},
	{
		"iatacode" : "ETZ",
		"name" : "Metz Nancy Lorraine",
		"country" : "F",
		"city" : "Metz",
		"province" : "Lorraine",
		"island" : null,
		"latitude" : 48.982142,
		"longitude" : 6.251319,
		"elevation" : 265,
		"gmtoffset" : 1
	},
	{
		"iatacode" : "ORY",
		"name" : "Orly",
		"country" : "F",
		"city" : "Paris",
		"province" : "Île-de-France",
		"island" : null,
		"latitude" : 48.725278,
		"longitude" : 2.359444,
		"elevation" : 89,
		"gmtoffset" : 1
	},
	{
		"iatacode" : "FNI",
		"name" : "Garons",
		"country" : "F",
		"city" : "Nîmes",
		"province" : "Languedoc-Roussillon",
		"island" : null,
		"latitude" : 43.757444,
		"longitude" : 4.416347,
		"elevation" : 94,
		"gmtoffset" : 1
	},
	{
		"iatacode" : "PGF",
		"name" : "Rivesaltes",
		"country" : "F",
		"city" : "Perpignan",
		"province" : "Languedoc-Roussillon",
		"island" : null,
		"latitude" : 42.740442,
		"longitude" : 2.870667,
		"elevation" : 44,
		"gmtoffset" : 1
	},
	{
		"iatacode" : "PIS",
		"name" : "Biard",
		"country" : "F",
		"city" : "Poitiers",
		"province" : "Poitou Charentes",
		"island" : null,
		"latitude" : 46.587745,
		"longitude" : 0.306666,
		"elevation" : 129,
		"gmtoffset" : 1
	},
	{
		"iatacode" : "RNS",
		"name" : "St Jacques",
		"country" : "F",
		"city" : "Rennes",
		"province" : "Bretagne",
		"island" : null,
		"latitude" : 48.069508,
		"longitude" : -1.734794,
		"elevation" : 38,
		"gmtoffset" : 1
	},
	{
		"iatacode" : "LYS",
		"name" : "Saint Exupery",
		"country" : "F",
		"city" : "Lyon",
		"province" : "Rhône-Alpes",
		"island" : null,
		"latitude" : 45.726387,
		"longitude" : 5.090833,
		"elevation" : 250,
		"gmtoffset" : 1
	},
	{
		"iatacode" : "BOD",
		"name" : "Merignac",
		"country" : "F",
		"city" : "Bordeaux",
		"province" : "Aquitaine",
		"island" : null,
		"latitude" : 44.828335,
		"longitude" : -0.715556,
		"elevation" : 49,
		"gmtoffset" : 1
	},
	{
		"iatacode" : "SXB",
		"name" : "Entzheim",
		"country" : "F",
		"city" : "Strasbourg",
		"province" : "Alsace",
		"island" : null,
		"latitude" : 48.538319,
		"longitude" : 7.628233,
		"elevation" : 154,
		"gmtoffset" : 1
	},
	{
		"iatacode" : "CFE",
		"name" : "Auvergne",
		"country" : "F",
		"city" : "Clermont-Ferrand",
		"province" : "Auvergne",
		"island" : null,
		"latitude" : 45.786661,
		"longitude" : 3.169169,
		"elevation" : 332,
		"gmtoffset" : 1
	},
	{
		"iatacode" : "LIG",
		"name" : "Bellegarde",
		"country" : "F",
		"city" : "Limoges",
		"province" : "Limousin",
		"island" : null,
		"latitude" : 45.862778,
		"longitude" : 1.179444,
		"elevation" : 396,
		"gmtoffset" : 1
	},
	{
		"iatacode" : "LIL",
		"name" : "Lesquin",
		"country" : "F",
		"city" : "Lille",
		"province" : "Nord-Pas-de-Calais",
		"island" : null,
		"latitude" : 50.561942,
		"longitude" : 3.089444,
		"elevation" : 48,
		"gmtoffset" : 1
	},
	{
		"iatacode" : "CDG",
		"name" : "Charles De Gaulle",
		"country" : "F",
		"city" : "Paris",
		"province" : "Île-de-France",
		"island" : null,
		"latitude" : 49.012779,
		"longitude" : 2.55,
		"elevation" : 120,
		"gmtoffset" : 1
	},
	{
		"iatacode" : "AJA",
		"name" : "Campo Dell Oro",
		"country" : "F",
		"city" : "Ajaccio",
		"province" : "Corse",
		"island" : "Corse",
		"latitude" : 41.923637,
		"longitude" : 8.802917,
		"elevation" : 5,
		"gmtoffset" : 1
	},
	{
		"iatacode" : "TUF",
		"name" : "Val De Loire",
		"country" : "F",
		"city" : "Tours",
		"province" : "Centre",
		"island" : null,
		"latitude" : 47.432222,
		"longitude" : 0.727606,
		"elevation" : 109,
		"gmtoffset" : 1
	},
	{
		"iatacode" : "TLS",
		"name" : "Blagnac",
		"country" : "F",
		"city" : "Toulouse",
		"province" : "Midi-Pyrénées",
		"island" : null,
		"latitude" : 43.629075,
		"longitude" : 1.363819,
		"elevation" : 152,
		"gmtoffset" : 1
	},
	{
		"iatacode" : "BES",
		"name" : "Guipavas",
		"country" : "F",
		"city" : "Brest",
		"province" : "Bretagne",
		"island" : null,
		"latitude" : 48.447911,
		"longitude" : -4.418539,
		"elevation" : 99,
		"gmtoffset" : 1
	},
	{
		"iatacode" : "NCE",
		"name" : "Cote d'Azur",
		"country" : "F",
		"city" : "Nice",
		"province" : "Provence-Alpes-Côte d'Azur",
		"island" : null,
		"latitude" : 43.658411,
		"longitude" : 7.215872,
		"elevation" : 4,
		"gmtoffset" : 1
	},
	{
		"iatacode" : "NTE",
		"name" : "Nantes Atlantique",
		"country" : "F",
		"city" : "Nantes",
		"province" : "Pays de la Loire",
		"island" : null,
		"latitude" : 47.153189,
		"longitude" : -1.610725,
		"elevation" : 27,
		"gmtoffset" : 1
	},
	{
		"iatacode" : "SBH",
		"name" : "Saint Barthelemy",
		"country" : "SBAR",
		"city" : "Gustavia",
		"province" : "Saint Barthelemy",
		"island" : "St. Barthelemy",
		"latitude" : 17.9023,
		"longitude" : -62.8324,
		"elevation" : 15,
		"gmtoffset" : -4
	},
	{
		"iatacode" : "CAY",
		"name" : "Rochambeau",
		"country" : "FGU",
		"city" : "Cayenne",
		"province" : "French Guiana",
		"island" : null,
		"latitude" : 4.819808,
		"longitude" : -52.360447,
		"elevation" : 8,
		"gmtoffset" : -3
	},
	{
		"iatacode" : "PPT",
		"name" : "Faa'a International",
		"country" : "FPOL",
		"city" : "Papeete",
		"province" : "French Polynesia",
		"island" : "Tahiti",
		"latitude" : -17.556667,
		"longitude" : -149.611389,
		"elevation" : 2,
		"gmtoffset" : -10
	},
	{
		"iatacode" : "LBV",
		"name" : "Leon M Ba",
		"country" : "G",
		"city" : "Libreville",
		"province" : "Gabon",
		"island" : null,
		"latitude" : 0.4586,
		"longitude" : 9.412283,
		"elevation" : 12,
		"gmtoffset" : 1
	},
	{
		"iatacode" : "BJL",
		"name" : "Banjul Intl",
		"country" : "WAG",
		"city" : "Banjul",
		"province" : "Gambia",
		"island" : null,
		"latitude" : 13.337961,
		"longitude" : -16.652206,
		"elevation" : 29,
		"gmtoffset" : 0
	},
	{
		"iatacode" : "TBS",
		"name" : "Tbilisi",
		"country" : "GE",
		"city" : "Tbilisi",
		"province" : "Georgia",
		"island" : null,
		"latitude" : 41.669167,
		"longitude" : 44.954722,
		"elevation" : 495,
		"gmtoffset" : 4
	},
	{
		"iatacode" : "BUS",
		"name" : "Batumi",
		"country" : "GE",
		"city" : "Batumi",
		"province" : "Georgia",
		"island" : null,
		"latitude" : 41.610278,
		"longitude" : 41.599694,
		"elevation" : 32,
		"gmtoffset" : 2
	},
	{
		"iatacode" : "KUT",
		"name" : "Kopitnari",
		"country" : "GE",
		"city" : "Kutaisi",
		"province" : "Georgia",
		"island" : null,
		"latitude" : 42.176653,
		"longitude" : 42.482583,
		"elevation" : 68,
		"gmtoffset" : 4
	},
	{
		"iatacode" : "HAJ",
		"name" : "Hannover",
		"country" : "D",
		"city" : "Hannover",
		"province" : "Niedersachsen",
		"island" : null,
		"latitude" : 52.461056,
		"longitude" : 9.685078,
		"elevation" : 56,
		"gmtoffset" : 1
	},
	{
		"iatacode" : "HAM",
		"name" : "Hamburg",
		"country" : "D",
		"city" : "Hamburg",
		"province" : "Hamburg",
		"island" : null,
		"latitude" : 53.630389,
		"longitude" : 9.988228,
		"elevation" : 16,
		"gmtoffset" : 1
	},
	{
		"iatacode" : "PAD",
		"name" : "Paderborn Lippstadt",
		"country" : "D",
		"city" : "Paderborn",
		"province" : "Nordrhein-Westfalen",
		"island" : null,
		"latitude" : 51.614089,
		"longitude" : 8.616317,
		"elevation" : 213,
		"gmtoffset" : 1
	},
	{
		"iatacode" : "GWT",
		"name" : "Westerland Sylt",
		"country" : "D",
		"city" : null,
		"province" : null,
		"island" : "Sylt",
		"latitude" : 54.91325,
		"longitude" : 8.340472,
		"elevation" : 16,
		"gmtoffset" : 1
	},
	{
		"iatacode" : "SCN",
		"name" : "Saarbrücken",
		"country" : "D",
		"city" : "Saarbrücken",
		"province" : "Saarland",
		"island" : null,
		"latitude" : 49.214553,
		"longitude" : 7.109508,
		"elevation" : 323,
		"gmtoffset" : 1
	},
	{
		"iatacode" : "TXL",
		"name" : "Tegel",
		"country" : "D",
		"city" : "Berlin",
		"province" : "Berlin",
		"island" : null,
		"latitude" : 52.559686,
		"longitude" : 13.287711,
		"elevation" : 37,
		"gmtoffset" : 1
	},
	{
		"iatacode" : "BRE",
		"name" : "Neuenland",
		"country" : "D",
		"city" : "Bremen",
		"province" : "Bremen",
		"island" : null,
		"latitude" : 53.0475,
		"longitude" : 8.786667,
		"elevation" : 4,
		"gmtoffset" : 1
	},
	{
		"iatacode" : "SXF",
		"name" : "Schönefeld",
		"country" : "D",
		"city" : "Berlin",
		"province" : "Berlin",
		"island" : null,
		"latitude" : 52.380001,
		"longitude" : 13.5225,
		"elevation" : 48,
		"gmtoffset" : 1
	},
	{
		"iatacode" : "STR",
		"name" : "Stuttgart",
		"country" : "D",
		"city" : "Stuttgart",
		"province" : "Baden-Württemberg",
		"island" : null,
		"latitude" : 48.689878,
		"longitude" : 9.221964,
		"elevation" : 389,
		"gmtoffset" : 1
	},
	{
		"iatacode" : "LBC",
		"name" : "Lübeck",
		"country" : "D",
		"city" : "Lübeck",
		"province" : "Schleswig-Holstein",
		"island" : null,
		"latitude" : 53.805367,
		"longitude" : 10.719222,
		"elevation" : 16,
		"gmtoffset" : 1
	},
	{
		"iatacode" : "LEJ",
		"name" : "Leipzig Halle",
		"country" : "D",
		"city" : "Leipzig",
		"province" : "Sachsen",
		"island" : null,
		"latitude" : 51.432447,
		"longitude" : 12.241633,
		"elevation" : 142,
		"gmtoffset" : 1
	},
	{
		"iatacode" : "CGN",
		"name" : "Köln Bonn",
		"country" : "D",
		"city" : "Köln",
		"province" : "Nordrhein-Westfalen",
		"island" : null,
		"latitude" : 50.865917,
		"longitude" : 7.142744,
		"elevation" : 92,
		"gmtoffset" : 1
	},
	{
		"iatacode" : "HHN",
		"name" : "Frankfurt Hahn",
		"country" : "D",
		"city" : "Frankfurt am Main",
		"province" : "Hessen",
		"island" : null,
		"latitude" : 49.948672,
		"longitude" : 7.263892,
		"elevation" : 503,
		"gmtoffset" : 1
	},
	{
		"iatacode" : "FRA",
		"name" : "Frankfurt Main",
		"country" : "D",
		"city" : "Frankfurt am Main",
		"province" : "Hessen",
		"island" : null,
		"latitude" : 50.026421,
		"longitude" : 8.543125,
		"elevation" : 111,
		"gmtoffset" : 1
	},
	{
		"iatacode" : "FMO",
		"name" : "Münster Osnabrück",
		"country" : "D",
		"city" : "Münster",
		"province" : "Nordrhein-Westfalen",
		"island" : null,
		"latitude" : 52.134642,
		"longitude" : 7.684831,
		"elevation" : 49,
		"gmtoffset" : 1
	},